COD_IBGE,Nome,COD_UF,UF,Regiao,Classe_local,Regiao_saude,Pop_estimada_2019,Latitude,Longitude,Distancia_capitalUF,Distancia_capital_mais_proxima,Distancia_cidade150mil,Razao_dependencia,Gini,Perc_extremamente_pobres_menos70,Perc_pobres_menos140,Perc_vulneraveis_pobreza_menos255,RDPC,Perc_dom_agua_encanada,Perc_dom_banheiro_agua_encanada,Perc_pop_densidade_2dorm,Perc_pop_agua_esgoto_inadequado,Perc_pop_vulneraveis_depIdoso,IDHM,IDHM_E,IDHM_L,IDHM_R,Confirmados,Mortes,Confirmados_100mil,Mortes_100mil,Dias_primeiro_confirmado,Dias_primeira_morte,Dias_ate_morte,Dias_ate_confirmado_brasil,Aceleracao_confirmados,Aceleracao_mortes,Status_Covid,Aux_emerg_abril_n,Aux_emerg_abril_valor,Aux_emerg_maio_n,Aux_emerg_maio_valor,Aux_emerg_junho_n,Aux_emerg_junho_valor,Aux_emerg_julho_n,Aux_emerg_julho_valor,Aux_emerg_valor_medio,Aux_emerg_maio_n_100mil
11,Rondônia,11,RO,Norte,Estado,999999999999,1777225,-10.83,-63.34,999999999999.0,999999999999.0,999999999999.0,46.74,0.56,6.39,14.8,33.33,670.82,95.13,79.62,27.15,12.43,1.61,0.69,0.5770000000000001,0.8,0.7120000000000001,38992.0,872.0,2193.982191337619,49.065256228108424,134.0,124.0,10.0,24.0,290.9850746268657,7.032258064516129,Confirmados com Mortes,,,,,,,,,,
12,Acre,12,AC,Norte,Estado,999999999999,881935,-8.77,-70.55,999999999999.0,999999999999.0,999999999999.0,61.34,0.63,15.59,29.46,50.97,522.15,86.51,47.42,46.05,28.09,2.91,0.6629999999999999,0.5589999999999999,0.777,0.6709999999999999,19625.0,531.0,2225.2206795285365,60.20851876838996,137.0,117.0,20.0,21.0,143.24817518248176,4.538461538461538,Confirmados com Mortes,,,,,,,,,,
13,Amazonas,13,AM,Norte,Estado,999999999999,4144597,-3.47,-65.1,999999999999.0,999999999999.0,999999999999.0,59.33,0.65,16.43,30.78,51.78,539.8,77.32,62.16,57.95,20.98,3.31,0.674,0.561,0.805,0.677,100940.0,3268.0,2435.4599494233094,78.84964448895755,141.0,130.0,11.0,17.0,715.886524822695,25.138461538461538,Confirmados com Mortes,,,,,,,,,,
14,Roraima,14,RR,Norte,Estado,999999999999,605761,1.99,-61.33,999999999999.0,999999999999.0,999999999999.0,57.5,0.63,15.66,26.65,45.72,605.59,93.35,74.04,51.22,12.44,2.45,0.7070000000000001,0.628,0.809,0.695,32723.0,513.0,5401.965461625955,84.68686495168888,133.0,120.0,13.0,25.0,246.0375939849624,4.275,Confirmados com Mortes,,,,,,,,,,
15,Pará,15,PA,Norte,Estado,999999999999,8602865,-3.79,-52.48,999999999999.0,999999999999.0,999999999999.0,55.83,0.62,15.9,32.33,55.99,446.76,84.7,57.5,49.4,29.05,3.78,0.6459999999999999,0.528,0.789,0.6459999999999999,156053.0,5750.0,1813.9654638309448,66.83819866986173,136.0,122.0,14.0,22.0,1147.4485294117646,47.131147540983605,Confirmados com Mortes,,,,,,,,,,
16,Amapá,16,AP,Norte,Estado,999999999999,845731,1.41,-51.77,999999999999.0,999999999999.0,999999999999.0,57.67,0.6,9.93,24.07,45.22,598.98,91.44,66.38,53.98,21.51,2.49,0.708,0.629,0.813,0.6940000000000001,36468.0,565.0,4312.009374139058,66.80611210893298,134.0,119.0,15.0,24.0,272.14925373134326,4.7478991596638656,Confirmados com Mortes,,,,,,,,,,
17,Tocantins,17,TO,Norte,Estado,999999999999,1572866,-9.46,-48.26,999999999999.0,999999999999.0,999999999999.0,52.9,0.6,10.21,22.15,44.71,586.62,94.33,80.41,31.22,8.07,3.5,0.6990000000000001,0.624,0.7929999999999999,0.69,25346.0,390.0,1611.4532325067742,24.79550069745293,136.0,108.0,28.0,22.0,186.36764705882354,3.611111111111111,Confirmados com Mortes,,,,,,,,,,
21,Maranhão,21,MA,Nordeste,Estado,999999999999,7075181,-5.42,-45.44,999999999999.0,999999999999.0,999999999999.0,58.65,0.62,22.47,39.53,63.58,360.34,82.12,51.79,42.7,23.99,5.54,0.639,0.562,0.757,0.612,120661.0,3013.0,1705.4122007620724,42.5854829720964,134.0,125.0,9.0,24.0,900.455223880597,24.104,Confirmados com Mortes,,,,,,,,,,
22,Piauí,22,PI,Nordeste,Estado,999999999999,3273227,-6.6,-42.28,999999999999.0,999999999999.0,999999999999.0,51.7,0.61,18.77,34.11,58.13,416.93,81.6,67.12,31.44,8.15,4.99,0.6459999999999999,0.547,0.777,0.635,52458.0,1354.0,1602.638619319711,41.36590587820521,135.0,127.0,8.0,23.0,388.5777777777778,10.661417322834646,Confirmados com Mortes,,,,,,,,,,
23,Ceará,23,CE,Nordeste,Estado,999999999999,9132078,-5.2,-39.53,999999999999.0,999999999999.0,999999999999.0,50.32,0.61,14.69,30.32,54.85,460.63,86.08,76.28,34.13,10.99,4.6,0.682,0.615,0.7929999999999999,0.6509999999999999,174662.0,7692.0,1912.6205448529897,84.23055519236695,138.0,128.0,10.0,20.0,1265.6666666666667,60.09375,Confirmados com Mortes,,,,,,,,,,
24,Rio Grande do Norte,24,RN,Nordeste,Estado,999999999999,3506853,-5.81,-36.59,999999999999.0,999999999999.0,999999999999.0,48.03,0.6,10.33,23.79,47.7,545.42,89.15,85.06,29.67,9.4,3.82,0.684,0.597,0.792,0.6779999999999999,51700.0,1885.0,1474.2562633791606,53.75189664351487,142.0,126.0,16.0,16.0,364.0845070422535,14.96031746031746,Confirmados com Mortes,,,,,,,,,,
25,Paraíba,25,PB,Nordeste,Estado,999999999999,4018127,-7.28,-36.72,999999999999.0,999999999999.0,999999999999.0,51.14,0.61,13.39,28.93,53.65,474.94,81.96,78.91,28.94,11.75,4.73,0.6579999999999999,0.555,0.7829999999999999,0.6559999999999999,82794.0,1811.0,2060.5122735045456,45.070750625851296,136.0,123.0,13.0,22.0,608.7794117647059,14.723577235772357,Confirmados com Mortes,,,,,,,,,,
26,Pernambuco,26,PE,Nordeste,Estado,999999999999,9557071,-8.38,-37.86,999999999999.0,999999999999.0,999999999999.0,49.34,0.62,12.32,27.17,51.86,525.64,83.69,78.22,29.89,10.83,4.38,0.6729999999999999,0.574,0.789,0.6729999999999999,95005.0,6557.0,994.0807178266227,68.60888655112012,142.0,129.0,13.0,16.0,669.0492957746479,50.82945736434109,Confirmados com Mortes,,,,,,,,,,
27,Alagoas,27,AL,Nordeste,Estado,999999999999,3337357,-9.62,-36.82,999999999999.0,999999999999.0,999999999999.0,54.3,0.63,16.66,34.29,59.76,432.56,77.56,75.64,35.04,13.07,4.51,0.631,0.52,0.755,0.6409999999999999,59725.0,1567.0,1789.5897861691153,46.95332264423615,146.0,123.0,23.0,12.0,409.0753424657534,12.739837398373984,Confirmados com Mortes,,,,,,,,,,
28,Sergipe,28,SE,Nordeste,Estado,999999999999,2298696,-10.57,-37.45,999999999999.0,999999999999.0,999999999999.0,49.34,0.62,11.7,27.89,52.13,523.53,89.13,82.24,29.14,11.02,3.37,0.665,0.56,0.7809999999999999,0.672,58713.0,1434.0,2554.1872435502564,62.383194646007986,140.0,121.0,19.0,18.0,419.37857142857143,11.851239669421487,Confirmados com Mortes,,,,,,,,,,
29,Bahia,29,BA,Nordeste,Estado,999999999999,14873064,-13.29,-41.71,999999999999.0,999999999999.0,999999999999.0,48.92,0.62,13.79,28.72,52.71,496.73,85.66,77.6,27.91,9.35,4.39,0.66,0.555,0.7829999999999999,0.6629999999999999,166154.0,3463.0,1117.1470787727399,23.283702672159546,148.0,125.0,23.0,10.0,1122.662162162162,27.704,Confirmados com Mortes,,,,,,,,,,
31,Minas Gerais,31,MG,Sudeste,Estado,999999999999,21168791,-18.1,-44.38,999999999999.0,999999999999.0,999999999999.0,44.01,0.56,3.49,10.97,28.85,749.69,94.44,94.91,18.91,1.84,2.14,0.731,0.638,0.838,0.73,127106.0,2769.0,600.440525866593,13.080576968235928,146.0,124.0,22.0,12.0,870.5890410958904,22.330645161290324,Confirmados com Mortes,,,,,,,,,,
32,Espírito Santo,32,ES,Sudeste,Estado,999999999999,4018650,-19.19,-40.34,999999999999.0,999999999999.0,999999999999.0,43.26,0.56,2.67,9.53,26.82,815.43,96.45,96.89,20.59,0.99,1.66,0.74,0.653,0.835,0.743,83292.0,2544.0,2072.6363330969352,63.30484117800754,149.0,121.0,28.0,9.0,559.006711409396,21.024793388429753,Confirmados com Mortes,,,,,,,,,,
33,Rio de Janeiro,33,RJ,Sudeste,Estado,999999999999,17264943,-22.25,-42.66,999999999999.0,999999999999.0,999999999999.0,43.07,0.59,1.98,7.23,22.26,1039.3,95.84,94.73,30.33,1.67,1.53,0.7609999999999999,0.675,0.835,0.782,165495.0,13477.0,958.5609405139653,78.05991598118801,149.0,135.0,14.0,9.0,1110.7046979865772,99.82962962962964,Confirmados com Mortes,,,,,,,,,,
35,São Paulo,35,SP,Sudeste,Estado,999999999999,45919049,-22.19,-48.79,999999999999.0,999999999999.0,999999999999.0,41.53,0.56,1.16,4.66,16.13,1084.46,98.57,97.12,28.66,0.6,1.07,0.7829999999999999,0.7190000000000001,0.845,0.789,542304.0,22997.0,1181.00006818521,50.08161209958857,158.0,137.0,21.0,0.0,3432.3037974683543,167.86131386861314,Confirmados com Mortes,,,,,,,,,,
41,Paraná,41,PR,Sul,Estado,999999999999,11433957,-24.89,-51.55,999999999999.0,999999999999.0,999999999999.0,43.78,0.53,1.96,6.46,19.7,890.89,96.71,96.69,16.85,0.97,1.31,0.7490000000000001,0.6679999999999999,0.83,0.757,76112.0,1920.0,665.6663130707943,16.792086938931114,142.0,127.0,15.0,16.0,536.0,15.118110236220472,Confirmados com Mortes,,,,,,,,,,
42,Santa Catarina,42,SC,Sul,Estado,999999999999,7164788,-27.45,-50.95,999999999999.0,999999999999.0,999999999999.0,40.34,0.49,1.01,3.65,12.36,983.9,94.13,97.0,13.15,0.78,0.76,0.774,0.6970000000000001,0.86,0.773,84073.0,1102.0,1173.4192274774914,15.380776095538348,142.0,128.0,14.0,16.0,592.0633802816901,8.609375,Confirmados com Mortes,,,,,,,,,,
43,Rio Grande do Sul,43,RS,Sul,Estado,999999999999,11377239,-30.17,-53.5,999999999999.0,999999999999.0,999999999999.0,43.18,0.54,1.98,6.37,18.65,959.24,96.17,96.46,16.25,0.89,1.18,0.746,0.642,0.84,0.769,66692.0,1876.0,586.1879143085594,16.48906206505814,144.0,129.0,15.0,14.0,463.1388888888889,14.542635658914728,Confirmados com Mortes,,,,,,,,,,
50,Mato Grosso do Sul,50,MS,Centro-Oeste,Estado,999999999999,2778986,-20.51,-54.54,999999999999.0,999999999999.0,999999999999.0,46.22,0.56,3.55,9.92,26.83,799.34,96.22,93.76,24.97,3.93,1.77,0.7290000000000001,0.629,0.833,0.74,25739.0,389.0,926.2011395523402,13.997911468427692,140.0,123.0,17.0,18.0,183.85,3.16260162601626,Confirmados com Mortes,,,,,,,,,,
51,Mato Grosso,51,MT,Centro-Oeste,Estado,999999999999,3484466,-12.64,-55.42,999999999999.0,999999999999.0,999999999999.0,44.56,0.55,4.41,10.52,27.0,762.52,95.17,90.37,26.58,5.16,1.71,0.725,0.635,0.821,0.732,52078.0,1842.0,1494.5762133997002,52.86319338458174,134.0,120.0,14.0,24.0,388.64179104477614,15.35,Confirmados com Mortes,,,,,,,,,,
52,Goiás,52,GO,Centro-Oeste,Estado,999999999999,7018354,-15.98,-49.86,999999999999.0,999999999999.0,999999999999.0,43.41,0.55,2.32,7.59,24.22,810.97,96.76,93.66,19.26,3.38,1.48,0.735,0.6459999999999999,0.8270000000000001,0.742,69249.0,1677.0,986.6843422261117,23.89449150042873,142.0,128.0,14.0,16.0,487.66901408450707,13.1015625,Confirmados com Mortes,,,,,,,,,,
53,Distrito Federal,53,DF,Centro-Oeste,Estado,999999999999,3015268,-15.83,-47.86,999999999999.0,999999999999.0,999999999999.0,40.14,0.63,1.19,4.93,16.0,1715.11,98.13,96.01,23.48,0.72,0.71,0.8240000000000001,0.742,0.873,0.863,106292.0,1469.0,3525.126124775642,48.71872085665353,147.0,125.0,22.0,11.0,723.0748299319728,11.752,Confirmados com Mortes,,,,,,,,,,
1100015,Alta Floresta D'Oeste,11,RO,Norte,Municipio,II Delegacia Regional de Saúde,22945,-11.9283,-61.9953,409.2,409.2,409.2,47.37,0.58,14.29,26.04,47.12,476.99,93.69,80.2,22.58,9.31,2.2,0.6409999999999999,0.526,0.763,0.657,304.0,2.0,1324.9073872303334,8.716495968620615,91.0,19.0,72.0,67.0,3.340659340659341,0.10526315789473684,Confirmados com Mortes,6513.0,682.542607093505,8006.0,674.868848363727,4938.0,690.5224787363309,2580.0,651.162790697674,677.8690384353586,34892.133362388326
1100023,Ariquemes,11,RO,Norte,Municipio,Departamento de Epidemiologia,107863,-9.905710000000001,-63.0325,158.95,158.95,158.95,46.68,0.53,4.36,11.54,29.04,689.95,98.54,85.35,27.15,11.4,1.4,0.7020000000000001,0.6,0.8059999999999999,0.716,2627.0,41.0,2435.496880301864,38.01118084978167,113.0,76.0,37.0,45.0,23.24778761061947,0.5394736842105263,Confirmados com Mortes,24341.0,719.2309272421021,31130.0,705.525216832637,16796.0,725.708502024292,12202.0,679.806589083757,709.7728160626976,28860.68438667569
1100031,Cabixi,11,RO,Norte,Municipio,III Delegacia Regional de Saúde,5312,-13.4945,-60.552,640.62,533.57,532.38,48.12,0.51,7.27,21.2,46.98,457.17,95.49,91.63,19.93,3.31,3.1,0.65,0.5589999999999999,0.757,0.65,44.0,3.0,828.3132530120482,56.47590361445782,58.0,31.0,27.0,100.0,0.7586206896551724,0.0967741935483871,Confirmados com Mortes,1219.0,686.628383921247,1610.0,680.869565217391,924.0,688.961038961039,648.0,669.444444444444,682.4812542603952,30308.734939759037
1100049,Cacoal,11,RO,Norte,Municipio,II Delegacia Regional de Saúde,85359,-11.4343,-61.4562,399.91,399.91,399.91,43.79,0.57,5.97,13.08,29.82,738.06,97.96,93.44,20.5,1.85,1.84,0.718,0.62,0.821,0.727,759.0,12.0,889.1856746213053,14.05827153551471,93.0,60.0,33.0,65.0,8.161290322580646,0.2,Confirmados com Mortes,18912.0,692.8934010152279,24073.0,681.925808997632,13513.0,698.260933915489,9165.0,662.3240589198041,685.710369614547,28202.064222870464
1100056,Cerejeiras,11,RO,Norte,Municipio,III Delegacia Regional de Saúde,16323,-13.187000000000001,-60.8168,596.19,574.77,573.77,45.67,0.5,4.72,13.7,34.85,577.18,97.53,86.87,16.66,5.34,1.43,0.6920000000000001,0.602,0.799,0.688,104.0,5.0,637.137781045151,30.631624088709184,71.0,71.0,0.0,87.0,1.4647887323943662,0.07042253521126761,Confirmados com Mortes,4216.0,701.4705882352939,5158.0,691.198138813494,2864.0,720.8798882681559,1889.0,662.890418210693,696.4960713527288,31599.583409912397
1100064,Colorado do Oeste,11,RO,Norte,Municipio,III Delegacia Regional de Saúde,15882,-13.1174,-60.5454,607.23,552.99,552.22,45.82,0.49,6.64,15.76,37.11,535.41,95.54,93.89,14.73,2.99,1.9,0.685,0.584,0.8140000000000001,0.6759999999999999,80.0,0.0,503.7148973680896,0.0,56.0,,,102.0,1.4285714285714286,,Confirmados sem Mortes,3508.0,675.94070695553,4633.0,669.674077271746,2494.0,677.9470729751399,1908.0,660.0628930817609,671.6096627601049,29171.388993829496
1100072,Corumbiara,11,RO,Norte,Municipio,III Delegacia Regional de Saúde,7391,-12.9551,-60.8947,570.23,570.23,570.23,46.32,0.48,10.16,24.02,46.42,402.15,93.24,86.43,14.46,6.31,1.11,0.613,0.473,0.774,0.63,19.0,1.0,257.0694087403599,13.529968881071573,56.0,18.0,38.0,102.0,0.3392857142857143,0.05555555555555555,Confirmados com Mortes,1761.0,696.081771720613,2241.0,694.7791164658639,1394.0,697.7044476327121,726.0,696.6942148760329,696.0470434498533,30320.660262481397
1100080,Costa Marques,11,RO,Norte,Municipio,I Delegacia Regional de Saúde,18331,-12.4367,-64.22800000000001,410.31,410.31,410.31,60.13,0.52,9.66,30.48,55.8,370.77,95.67,54.32,36.18,36.41,2.12,0.611,0.493,0.7509999999999999,0.616,82.0,1.0,447.3296601385631,5.4552397577873535,69.0,35.0,34.0,89.0,1.1884057971014492,0.02857142857142857,Confirmados com Mortes,4452.0,704.312668463612,4868.0,699.835661462613,3578.0,717.887087758524,1022.0,655.772994129158,702.6724137931033,26556.10714090884
1100098,Espigão D'Oeste,11,RO,Norte,Municipio,II Delegacia Regional de Saúde,32374,-11.5266,-61.0252,439.97,439.97,439.97,46.83,0.52,6.6,13.86,35.08,590.8,93.7,84.71,19.97,7.66,1.88,0.672,0.536,0.8190000000000001,0.691,258.0,6.0,796.9358126891951,18.533390992771974,92.0,71.0,21.0,66.0,2.8043478260869565,0.08450704225352113,Confirmados com Mortes,7198.0,692.6924145596,9123.0,682.604406445248,5624.0,696.1237553342821,3261.0,658.6936522539099,685.4082361342538,28180.021004509792
1100106,Guajará-Mirim,11,RO,Norte,Municipio,Departamento de Epidemiologia,46174,-10.7889,-65.3296,274.59,274.59,274.59,56.67,0.54,10.38,23.47,43.92,494.69,93.26,49.32,43.4,36.84,1.73,0.657,0.519,0.823,0.6629999999999999,2251.0,68.0,4875.0379001169495,147.26902585870837,93.0,93.0,0.0,65.0,24.204301075268816,0.7311827956989247,Confirmados com Mortes,12701.0,706.4325643650109,14433.0,702.2240698399501,9162.0,716.8303863785201,4212.0,678.774928774929,704.4090056285179,31257.85073851085
1100114,Jaru,11,RO,Norte,Municipio,I Delegacia Regional de Saúde,51775,-10.4318,-62.4788,242.49,242.49,242.49,47.49,0.49,4.32,13.78,32.12,575.14,97.09,82.81,19.09,15.11,1.4,0.6890000000000001,0.5770000000000001,0.825,0.687,1164.0,16.0,2248.1892805408015,30.902945436986965,124.0,49.0,75.0,34.0,9.387096774193548,0.32653061224489793,Confirmados com Mortes,12125.0,706.886597938144,15700.0,691.796178343949,8825.0,711.501416430595,6044.0,663.236267372601,696.1118658359487,30323.515210043457
1100122,Ji-Paraná,11,RO,Norte,Municipio,I Delegacia Regional de Saúde,128969,-10.8777,-61.9322,319.19,319.19,319.19,43.98,0.53,2.67,8.56,26.26,743.35,97.81,89.31,23.3,5.87,2.12,0.7140000000000001,0.617,0.81,0.728,1094.0,19.0,848.2658623390117,14.732222472066931,134.0,107.0,27.0,24.0,8.164179104477611,0.17757009345794392,Confirmados com Mortes,27265.0,702.262974509444,35905.0,690.455368333101,18231.0,699.1936810926439,15408.0,679.361370716511,693.6607133634268,27840.023571555954
1100130,Machadinho D'Oeste,11,RO,Norte,Municipio,Departamento de Epidemiologia,39991,-9.44363,-61.9818,223.87,223.87,223.87,52.55,0.55,17.59,28.55,51.72,401.42,92.56,69.34,28.87,17.19,3.44,0.596,0.446,0.755,0.629,381.0,4.0,952.7143607311646,10.002250506363932,84.0,51.0,33.0,74.0,4.535714285714286,0.0784313725490196,Confirmados com Mortes,9420.0,691.656050955414,11396.0,683.766233766234,6549.0,699.404489234998,3994.0,662.6439659489231,686.7119487228549,28496.41169263084
1100148,Nova Brasilândia D'Oeste,11,RO,Norte,Municipio,II Delegacia Regional de Saúde,20474,-11.7247,-62.3127,372.53,372.53,372.53,46.8,0.56,10.3,23.16,46.94,499.59,94.07,74.6,20.31,9.6,2.02,0.643,0.524,0.763,0.664,103.0,0.0,503.0770733613363,0.0,87.0,,,71.0,1.1839080459770115,,Confirmados sem Mortes,5080.0,669.094488188976,5856.0,665.061475409836,3844.0,678.824141519251,1521.0,641.4201183431949,667.3578308079259,28602.129530135782
1100155,Ouro Preto do Oeste,11,RO,Norte,Municipio,I Delegacia Regional de Saúde,36035,-10.7167,-62.2565,282.38,282.38,282.38,46.08,0.48,3.71,11.73,30.04,576.51,97.8,91.58,17.02,5.61,1.9,0.682,0.569,0.812,0.687,378.0,12.0,1048.9801581795477,33.30095740252531,115.0,58.0,57.0,43.0,3.2869565217391306,0.20689655172413793,Confirmados com Mortes,8846.0,687.836310196699,11255.0,678.1519324744561,6009.0,693.8592111832249,4397.0,666.181487377758,682.3286458845513,31233.52296378521
1100189,Pimenta Bueno,11,RO,Norte,Municipio,II Delegacia Regional de Saúde,36660,-11.672,-61.198,438.4,438.4,438.4,45.13,0.54,2.29,9.33,25.37,734.76,97.21,91.07,21.55,4.7,1.54,0.71,0.613,0.8029999999999999,0.726,362.0,7.0,987.4522640480087,19.094380796508457,97.0,51.0,46.0,61.0,3.731958762886598,0.13725490196078433,Confirmados com Mortes,6906.0,710.07819287576,9148.0,699.30039352864,4864.0,708.9226973684209,3808.0,687.605042016807,702.4023295316671,24953.627932351337
1100205,Porto Velho,11,RO,Norte,Capital,Departamento de Epidemiologia,529544,-8.760769999999999,-63.8999,0.0,0.0,0.0,42.97,0.56,2.64,7.95,21.78,929.19,92.87,72.14,36.73,17.76,0.75,0.736,0.638,0.8190000000000001,0.764,21946.0,560.0,4144.32039641654,105.75136343722147,133.0,124.0,9.0,25.0,165.00751879699249,4.516129032258065,Confirmados com Mortes,131463.0,730.206978389357,160397.0,717.5408517615671,90915.0,748.1075730077549,59272.0,675.4454042380889,721.949928401279,30289.645430785735
1100254,Presidente Médici,11,RO,Norte,Municipio,I Delegacia Regional de Saúde,18986,-11.169,-61.8986,346.03,346.03,346.03,46.95,0.53,9.3,19.39,40.89,520.2,93.77,85.3,17.7,9.63,2.47,0.664,0.55,0.792,0.6709999999999999,177.0,3.0,932.2658801221953,15.801116612240598,76.0,36.0,40.0,82.0,2.3289473684210527,0.08333333333333333,Confirmados com Mortes,6117.0,690.828837665522,6978.0,684.6087704213239,4237.0,713.9957517111159,2032.0,641.338582677165,688.4631274530053,36753.39724007163
1100262,Rio Crespo,11,RO,Norte,Municipio,Departamento de Epidemiologia,3764,-9.69965,-62.9011,151.38,151.38,151.38,53.02,0.58,16.85,28.5,54.28,420.61,97.99,83.94,27.09,8.15,2.49,0.643,0.513,0.813,0.637,65.0,0.0,1726.8862911795961,0.0,76.0,,,82.0,0.8552631578947368,,Confirmados sem Mortes,871.0,704.707233065442,1089.0,699.1735537190079,641.0,716.0686427457099,402.0,679.1044776119401,701.6983016983015,28931.987247608926
1100288,Rolim de Moura,11,RO,Norte,Municipio,II Delegacia Regional de Saúde,55058,-11.7271,-61.7714,403.77,403.77,403.77,44.5,0.53,3.96,10.77,31.34,657.65,97.4,93.72,20.06,4.5,1.23,0.7,0.598,0.8079999999999999,0.7090000000000001,828.0,12.0,1503.868647607977,21.79519779141996,118.0,97.0,21.0,40.0,7.016949152542373,0.12371134020618557,Confirmados com Mortes,12101.0,696.7853896372201,15725.0,687.987281399046,8088.0,701.038575667656,6348.0,673.345935727788,690.8049784676541,28560.790439173234
1100296,Santa Luzia D'Oeste,11,RO,Norte,Municipio,II Delegacia Regional de Saúde,6495,-11.9074,-61.7777,419.88,419.88,419.88,45.72,0.49,8.2,16.49,40.67,476.08,93.08,87.69,15.24,8.09,2.15,0.67,0.564,0.812,0.657,66.0,0.0,1016.1662817551963,0.0,78.0,,,80.0,0.8461538461538461,,Confirmados sem Mortes,1904.0,689.8109243697479,2366.0,679.881656804734,1370.0,700.729927007299,807.0,647.583643122677,683.2014890646814,36428.02155504234
1100304,Vilhena,11,RO,Norte,Municipio,III Delegacia Regional de Saúde,99854,-12.7502,-60.1488,603.84,539.64,539.53,44.68,0.5,2.1,6.37,22.39,768.98,98.16,97.28,21.21,1.55,1.4,0.731,0.659,0.8079999999999999,0.7340000000000001,1378.0,20.0,1380.0148216395937,20.02924269433373,118.0,59.0,59.0,40.0,11.677966101694915,0.3389830508474576,Confirmados com Mortes,19566.0,720.4845139527749,25036.0,708.108324013421,12822.0,730.135704258306,10013.0,683.471487066813,712.2291916900218,25072.606004766963
1100320,São Miguel do Guaporé,11,RO,Norte,Municipio,I Delegacia Regional de Saúde,23005,-11.6953,-62.7192,350.95,350.95,350.95,50.32,0.62,21.83,33.34,53.28,440.6,97.43,77.44,24.35,9.43,1.49,0.6459999999999999,0.537,0.7809999999999999,0.644,768.0,13.0,3338.404694631602,56.509454466420344,81.0,71.0,10.0,77.0,9.481481481481481,0.18309859154929578,Confirmados com Mortes,5364.0,678.9709172259511,7026.0,672.3313407344149,3708.0,677.8317152103559,2633.0,669.958222559818,674.9879878276654,30541.186698543792
1100338,Nova Mamoré,11,RO,Norte,Municipio,Departamento de Epidemiologia,30583,-10.4077,-65.3346,241.41,241.41,241.41,56.64,0.52,11.73,28.2,52.95,377.34,93.81,57.14,31.45,31.57,2.03,0.5870000000000001,0.424,0.769,0.619,544.0,6.0,1778.7659811006113,19.61874243860969,81.0,71.0,10.0,77.0,6.716049382716049,0.08450704225352113,Confirmados com Mortes,7406.0,689.116932217121,8907.0,685.6180532165711,5458.0,689.813118358373,3089.0,674.7814826804789,686.2349155269508,29124.023150116078
1100346,Alvorada D'Oeste,11,RO,Norte,Municipio,I Delegacia Regional de Saúde,14411,-11.3463,-62.2847,337.52,337.52,337.52,48.82,0.53,11.71,23.63,45.04,469.26,94.31,80.76,17.85,7.37,2.81,0.643,0.534,0.763,0.654,51.0,3.0,353.8963291929776,20.81743112899868,87.0,60.0,27.0,71.0,0.5862068965517241,0.05,Confirmados com Mortes,4339.0,699.00898824614,5045.0,690.862239841427,3189.0,717.215428033867,1391.0,647.8792235801579,695.1303351475225,35007.98001526612
1100379,Alto Alegre dos Parecis,11,RO,Norte,Municipio,II Delegacia Regional de Saúde,13241,-12.132,-61.835,437.6,437.6,437.6,52.06,0.54,21.1,33.84,55.19,341.22,93.59,77.53,24.2,15.73,2.2,0.5920000000000001,0.44299999999999995,0.777,0.603,98.0,3.0,740.1253681746092,22.65689902575334,89.0,55.0,34.0,69.0,1.101123595505618,0.05454545454545454,Confirmados com Mortes,2890.0,675.363321799308,3624.0,672.6821192052979,2388.0,676.633165829146,1155.0,670.6493506493509,674.1573033707866,27369.534023110038
1100403,Alto Paraíso,11,RO,Norte,Municipio,Departamento de Epidemiologia,21428,-9.71429,-63.3188,123.73,123.73,123.73,53.17,0.54,8.34,18.03,43.91,498.49,95.29,72.84,21.88,15.58,2.01,0.625,0.457,0.804,0.664,168.0,4.0,784.0209072241927,18.667164457718876,105.0,79.0,26.0,53.0,1.6,0.05063291139240506,Confirmados com Mortes,5040.0,682.7380952380951,5966.0,676.433121019108,3592.0,692.2048997772831,1903.0,658.328954282711,679.7042603478575,27842.075788687696
1100452,Buritis,11,RO,Norte,Municipio,Departamento de Epidemiologia,39654,-10.1943,-63.8324,159.57,159.57,159.57,51.51,0.5,9.18,20.83,41.94,458.05,90.12,77.33,24.71,13.51,1.9,0.616,0.479,0.7509999999999999,0.65,270.0,4.0,680.8896958692692,10.087254753618804,107.0,79.0,28.0,51.0,2.5233644859813085,0.05063291139240506,Confirmados com Mortes,9450.0,682.412698412698,11932.0,676.4834059671471,7493.0,683.517950086748,4111.0,665.969350522987,678.469653792518,30090.28093004489
1100502,Novo Horizonte do Oeste,11,RO,Norte,Municipio,II Delegacia Regional de Saúde,8538,-11.6961,-61.9951,387.26,387.26,387.26,47.61,0.51,16.6,32.25,54.79,346.38,92.66,86.25,22.51,8.4,3.54,0.634,0.527,0.799,0.606,31.0,1.0,363.0826891543687,11.712344811431247,93.0,49.0,44.0,65.0,0.3333333333333333,0.02040816326530612,Confirmados com Mortes,2391.0,661.229611041405,2748.0,656.3318777292579,1792.0,669.9776785714289,751.0,640.7456724367511,659.5157511064826,32185.523541813072
1100601,Cacaulândia,11,RO,Norte,Municipio,Departamento de Epidemiologia,6230,-10.349,-62.9043,207.62,207.62,207.62,53.74,0.56,8.8,22.02,45.4,499.93,93.68,74.25,26.48,10.75,2.68,0.6459999999999999,0.506,0.8009999999999999,0.664,33.0,0.0,529.6950240770465,0.0,81.0,,,77.0,0.4074074074074074,,Confirmados sem Mortes,1314.0,665.7534246575341,1564.0,658.695652173913,896.0,669.6428571428571,516.0,653.488372093023,662.5174825174824,25104.333868378813
1100700,Campo Novo de Rondônia,11,RO,Norte,Municipio,Departamento de Epidemiologia,14139,-10.5712,-63.6266,203.53,203.53,203.53,53.14,0.67,15.58,31.24,54.43,507.69,91.75,60.87,26.32,16.2,1.72,0.593,0.40399999999999997,0.772,0.667,83.0,4.0,587.0287856284036,28.290543885706203,91.0,91.0,0.0,67.0,0.9120879120879121,0.04395604395604396,Confirmados com Mortes,2832.0,657.203389830509,3416.0,656.55737704918,2114.0,664.9952696310311,1164.0,650.5154639175261,657.8836867520471,24160.124478393096
1100809,Candeias do Jamari,11,RO,Norte,Municipio,Departamento de Epidemiologia,26693,-8.7907,-63.7005,22.16,22.16,22.16,54.61,0.47,7.14,15.8,38.44,463.63,95.88,74.32,40.29,16.08,1.66,0.649,0.512,0.8190000000000001,0.652,923.0,18.0,3457.8353875547896,67.43340950811074,97.0,74.0,23.0,61.0,9.515463917525773,0.24324324324324326,Confirmados com Mortes,7844.0,767.6695563488021,8887.0,754.6753685158101,5700.0,797.0526315789471,2583.0,673.4030197444829,760.0143919405136,33293.37279436557
1100908,Castanheiras,11,RO,Norte,Municipio,II Delegacia Regional de Saúde,3052,-11.4253,-61.9482,365.27,365.27,365.27,48.71,0.5,12.02,21.08,41.69,455.53,95.22,87.36,20.52,5.47,1.18,0.6579999999999999,0.547,0.8029999999999999,0.65,32.0,0.0,1048.4927916120578,0.0,51.0,,,107.0,0.6274509803921569,,Confirmados sem Mortes,875.0,666.5142857142861,1068.0,662.921348314607,630.0,672.3809523809521,323.0,657.585139318885,665.4696132596686,34993.446920052425
1100924,Chupinguaia,11,RO,Norte,Municipio,III Delegacia Regional de Saúde,11182,-12.5611,-60.8877,535.61,535.61,535.61,50.76,0.47,5.39,16.12,37.88,483.36,85.16,83.49,29.61,8.08,0.88,0.652,0.514,0.82,0.659,155.0,1.0,1386.15632266142,8.942944017170452,59.0,3.0,56.0,99.0,2.6271186440677967,0.3333333333333333,Confirmados com Mortes,1841.0,714.394350896252,2322.0,705.6847545219641,1506.0,714.3426294820721,802.0,684.538653366584,707.5567918405195,20765.51600786979
1100940,Cujubim,11,RO,Norte,Municipio,Departamento de Epidemiologia,25215,-9.36065,-62.5846,159.09,159.09,159.09,54.11,0.52,9.04,19.56,40.1,495.31,94.18,66.32,33.65,21.04,0.74,0.612,0.439,0.789,0.6629999999999999,168.0,5.0,666.2700773349197,19.829466587348797,94.0,94.0,0.0,64.0,1.7872340425531914,0.05319148936170213,Confirmados com Mortes,5056.0,694.462025316456,6122.0,686.24632473048,3644.0,696.652030735455,2012.0,667.097415506958,688.6776761316382,24279.198889549873
1101005,Governador Jorge Teixeira,11,RO,Norte,Municipio,I Delegacia Regional de Saúde,7767,-10.61,-62.7371,241.92,241.92,241.92,51.22,0.55,11.52,27.2,53.67,396.36,94.71,76.85,23.3,6.33,3.41,0.596,0.444,0.762,0.627,49.0,0.0,630.8742114072357,0.0,93.0,,,65.0,0.5268817204301075,,Confirmados sem Mortes,2811.0,663.6072572038421,3189.0,659.2662276575729,2189.0,670.169026952947,798.0,639.84962406015,661.5555802826306,41058.3236770954
1101104,Itapuã do Oeste,11,RO,Norte,Municipio,Departamento de Epidemiologia,10458,-9.19687,-63.1809,92.67,92.67,92.67,57.14,0.47,9.04,17.61,45.24,411.36,91.75,68.43,34.37,23.92,2.4,0.614,0.488,0.7509999999999999,0.633,282.0,3.0,2696.5002868617325,28.686173264486516,96.0,30.0,66.0,62.0,2.9375,0.1,Confirmados com Mortes,2457.0,736.752136752137,2949.0,727.9755849440492,1715.0,761.632653061225,965.0,675.233160621762,731.4865199109574,28198.508318990243
1101203,Ministro Andreazza,11,RO,Norte,Municipio,II Delegacia Regional de Saúde,9660,-11.196,-61.5174,376.02,376.02,376.02,51.97,0.54,12.76,26.14,47.9,448.38,92.14,87.48,19.99,4.71,2.85,0.638,0.518,0.7759999999999999,0.647,9.0,1.0,93.16770186335404,10.351966873706004,70.0,35.0,35.0,88.0,0.12857142857142856,0.02857142857142857,Confirmados com Mortes,1911.0,660.282574568289,2270.0,657.885462555066,1437.0,669.311064718163,677.0,635.450516986706,658.8085782366958,23498.96480331263
1101302,Mirante da Serra,11,RO,Norte,Municipio,I Delegacia Regional de Saúde,10947,-11.029000000000002,-62.6696,285.96,285.96,285.96,53.4,0.6,10.94,24.22,47.79,527.79,96.64,80.66,20.58,10.98,3.16,0.643,0.494,0.8,0.6729999999999999,66.0,2.0,602.9049054535488,18.269845619804514,90.0,81.0,9.0,68.0,0.7333333333333333,0.024691358024691357,Confirmados com Mortes,3522.0,667.972742759795,3961.0,663.317344105024,2370.0,678.987341772152,1175.0,644.425531914894,666.1588683351467,36183.42925002283
1101401,Monte Negro,11,RO,Norte,Municipio,Departamento de Epidemiologia,15852,-10.2458,-63.29,178.16,178.16,178.16,55.53,0.47,5.69,20.75,42.84,443.85,98.33,77.85,28.17,9.55,2.22,0.607,0.45399999999999996,0.762,0.645,110.0,2.0,693.918748422912,12.616704516780214,74.0,46.0,28.0,84.0,1.4864864864864864,0.043478260869565216,Confirmados com Mortes,3565.0,659.7475455820479,4378.0,657.8346276838739,2623.0,664.506290507053,1496.0,658.9572192513369,659.9900514010944,27617.966187231897
1101435,Nova União,11,RO,Norte,Municipio,I Delegacia Regional de Saúde,6970,-10.9068,-62.5564,280.37,280.37,280.37,50.46,0.47,8.65,27.74,53.24,352.24,90.86,76.07,20.48,11.65,2.35,0.5870000000000001,0.442,0.753,0.608,73.0,1.0,1047.3457675753227,14.347202295552368,55.0,11.0,44.0,103.0,1.3272727272727274,0.09090909090909091,Confirmados com Mortes,2052.0,649.707602339181,2474.0,649.474535165724,1380.0,657.826086956522,856.0,639.252336448598,649.9556344276842,35494.97847919655
1101450,Parecis,11,RO,Norte,Municipio,II Delegacia Regional de Saúde,6074,-12.1754,-61.6032,455.2,455.2,455.2,50.08,0.52,16.04,25.68,57.31,343.73,87.26,78.77,20.36,9.93,3.46,0.617,0.485,0.8,0.604,11.0,1.0,181.09976950938426,16.463615409944023,40.0,23.0,17.0,118.0,0.275,0.043478260869565216,Confirmados com Mortes,1115.0,674.2600896860989,1300.0,670.1538461538461,773.0,682.276843467012,388.0,657.216494845361,672.6510067114095,21402.70003292723
1101468,Pimenteiras do Oeste,11,RO,Norte,Municipio,III Delegacia Regional de Saúde,2169,-13.4823,-61.0471,610.29,582.47,581.04,56.78,0.49,8.68,18.52,38.18,493.67,96.71,82.16,26.07,10.81,0.42,0.665,0.545,0.816,0.662,111.0,3.0,5117.565698478561,138.31258644536655,68.0,24.0,44.0,90.0,1.6323529411764706,0.125,Confirmados com Mortes,570.0,728.4210526315791,637.0,724.332810047096,407.0,751.842751842752,185.0,668.1081081081079,726.070038910506,29368.372521899495
1101476,Primavera de Rondônia,11,RO,Norte,Municipio,II Delegacia Regional de Saúde,2856,-11.8295,-61.3153,443.14,443.14,443.14,51.77,0.52,11.45,25.19,46.87,442.61,96.29,86.03,22.7,7.54,4.75,0.6409999999999999,0.512,0.799,0.645,10.0,0.0,350.140056022409,0.0,92.0,,,66.0,0.10869565217391304,,Confirmados sem Mortes,930.0,655.4838709677421,1067.0,656.794751640113,626.0,664.217252396166,303.0,659.405940594059,658.2365003417636,37359.943977591036
1101484,São Felipe D'Oeste,11,RO,Norte,Municipio,II Delegacia Regional de Saúde,5172,-11.9023,-61.5026,436.78,436.78,436.78,47.0,0.47,9.74,23.32,50.17,368.24,92.1,90.8,17.46,6.69,3.15,0.649,0.5710000000000001,0.78,0.615,57.0,1.0,1102.0881670533643,19.334880123743233,85.0,19.0,66.0,73.0,0.6705882352941176,0.05263157894736842,Confirmados com Mortes,1209.0,657.5682382133999,1501.0,657.161892071952,790.0,654.683544303797,621.0,667.6328502415461,658.3838874059694,29021.655065738592
1101492,São Francisco do Guaporé,11,RO,Norte,Municipio,I Delegacia Regional de Saúde,20266,-12.052,-63.568000000000005,367.76,367.76,367.76,52.4,0.56,12.21,24.53,47.5,477.9,96.26,70.72,21.74,16.21,1.6,0.611,0.462,0.7509999999999999,0.657,88.0,2.0,434.2248100266456,9.868745682423762,74.0,70.0,4.0,84.0,1.1891891891891893,0.02857142857142857,Confirmados com Mortes,4668.0,690.4884318766071,5627.0,685.516260885019,3350.0,701.373134328358,1844.0,659.869848156182,687.39105171412,27765.71597749926
1101500,Seringueiras,11,RO,Norte,Municipio,I Delegacia Regional de Saúde,11856,-11.8055,-63.0182,352.03,352.03,352.03,51.39,0.63,16.05,29.55,59.77,441.13,96.9,74.41,24.4,15.87,3.45,0.598,0.42700000000000005,0.779,0.644,79.0,0.0,666.3292847503375,0.0,73.0,,,85.0,1.082191780821918,,Confirmados sem Mortes,3743.0,667.165375367352,4334.0,662.713428703276,2679.0,679.9552071668529,1281.0,640.281030444965,665.5478939935196,36555.330634278005
1101559,Teixeirópolis,11,RO,Norte,Municipio,I Delegacia Regional de Saúde,4308,-10.9056,-62.242,299.78,299.78,299.78,49.94,0.43,6.75,17.73,33.7,464.45,95.05,89.33,16.29,2.88,1.09,0.643,0.498,0.818,0.653,11.0,0.0,255.338904363974,0.0,56.0,,,102.0,0.19642857142857142,,Confirmados sem Mortes,1186.0,668.2967959527821,1426.0,659.3267882187939,858.0,671.328671328671,467.0,651.3918629550321,663.7033274066546,33101.20705663881
1101609,Theobroma,11,RO,Norte,Municipio,I Delegacia Regional de Saúde,10444,-10.2483,-62.3538,236.87,236.87,236.87,51.48,0.57,20.54,32.94,54.11,382.6,96.15,71.98,21.4,7.32,2.0,0.589,0.434,0.757,0.622,74.0,0.0,708.5407889697434,0.0,86.0,,,72.0,0.8604651162790697,,Confirmados sem Mortes,2479.0,653.4893102057279,2922.0,651.540041067762,1755.0,659.48717948718,987.0,643.768996960486,652.9043350116666,27977.786288778243
1101708,Urupá,11,RO,Norte,Municipio,I Delegacia Regional de Saúde,11467,-11.1261,-62.3639,312.21,312.21,312.21,48.11,0.51,13.61,26.03,50.6,380.5,93.24,81.59,19.71,9.73,2.82,0.609,0.47100000000000003,0.772,0.621,45.0,0.0,392.43045260312203,0.0,100.0,,,58.0,0.45,,Confirmados sem Mortes,3142.0,676.00254614895,3861.0,669.93006993007,2414.0,684.5070422535211,1241.0,645.447219983884,672.1711390504786,33670.53283334787
1101757,Vale do Anari,11,RO,Norte,Municipio,Departamento de Epidemiologia,11204,-9.86215,-62.1876,224.28,224.28,224.28,53.27,0.57,17.42,32.09,57.32,394.02,93.37,62.07,22.22,22.2,3.4,0.584,0.42100000000000004,0.7559999999999999,0.626,74.0,1.0,660.4784005712246,8.925383791503036,92.0,30.0,62.0,66.0,0.8043478260869565,0.03333333333333333,Confirmados com Mortes,2520.0,670.0,2971.0,665.230562100303,1882.0,680.021253985122,873.0,644.6735395189,667.8874605869512,26517.315244555517
1101807,Vale do Paraíso,11,RO,Norte,Municipio,I Delegacia Regional de Saúde,6825,-10.4465,-62.1352,269.38,269.38,269.38,47.61,0.59,15.79,30.25,55.91,432.03,96.71,83.3,14.29,5.26,2.28,0.627,0.485,0.792,0.6409999999999999,49.0,1.0,717.9487179487179,14.652014652014651,74.0,16.0,58.0,84.0,0.6621621621621622,0.0625,Confirmados com Mortes,2161.0,659.972235076354,2501.0,656.617353058777,1600.0,667.5,754.0,644.5623342175071,658.8369441277083,36644.68864468864
1200013,Acrelândia,12,AC,Norte,Municipio,Acre,15256,-9.82581,-66.8972,102.9,102.9,102.9,62.68,0.54,18.09,36.56,64.18,303.76,93.87,55.29,41.61,23.82,2.54,0.604,0.466,0.8079999999999999,0.584,277.0,6.0,1815.679077084426,39.328788673308864,125.0,89.0,36.0,33.0,2.216,0.06741573033707865,Confirmados com Mortes,4898.0,683.666802776644,5506.0,677.9150018162011,3809.0,695.93069046994,1276.0,644.200626959248,681.3867906256057,36090.7184058731
1200054,Assis Brasil,12,AC,Norte,Municipio,Brasiléia,7417,-10.9298,-69.5738,218.79,218.79,218.79,66.61,0.61,30.66,44.09,66.28,291.33,80.31,40.79,47.0,28.79,6.49,0.588,0.456,0.77,0.578,316.0,6.0,4260.482674935958,80.89524066334097,92.0,74.0,18.0,66.0,3.4347826086956523,0.08108108108108109,Confirmados com Mortes,4272.0,665.02808988764,4934.0,661.2890149979729,3473.0,668.240714080046,1238.0,641.680129240711,662.4272472515626,66522.8529054874
1200104,Brasiléia,12,AC,Norte,Municipio,Brasiléia,26278,-10.995,-68.7497,151.99,151.99,151.99,58.65,0.58,17.09,35.22,59.8,376.07,91.48,53.24,41.11,20.4,3.68,0.614,0.485,0.77,0.619,791.0,11.0,3010.122535961641,41.860111119567705,84.0,70.0,14.0,74.0,9.416666666666666,0.15714285714285714,Confirmados com Mortes,9888.0,687.621359223301,11448.0,684.5911949685541,7905.0,695.5597722960149,3046.0,661.6546290216679,686.0408213832195,43564.959281528274
1200138,Bujari,12,AC,Norte,Municipio,Acre,10266,-9.81528,-67.955,22.81,22.81,22.81,64.07,0.58,20.68,37.61,63.43,340.95,81.12,41.89,50.25,23.51,4.83,0.589,0.439,0.772,0.603,322.0,5.0,3136.5673095655566,48.704461328657715,115.0,64.0,51.0,43.0,2.8,0.078125,Confirmados com Mortes,3897.0,719.3225558121629,4421.0,712.237050441077,3182.0,729.5411690760529,1075.0,663.06976744186,714.6083499005964,43064.48470679914
1200179,Capixaba,12,AC,Norte,Municipio,Acre,11733,-10.565999999999999,-67.686,67.44,67.44,67.44,68.72,0.56,17.89,35.0,59.5,336.17,86.19,30.45,48.48,31.13,3.76,0.575,0.39799999999999996,0.794,0.601,211.0,7.0,1798.3465439359074,59.66078581777891,85.0,65.0,20.0,73.0,2.4823529411764707,0.1076923076923077,Confirmados com Mortes,3979.0,696.35586830862,4296.0,693.4357541899441,3077.0,709.9772505687359,933.0,650.8038585209,695.2869352869351,36614.676553311176
1200203,Cruzeiro do Sul,12,AC,Norte,Municipio,Cruzeiro do Sul,88376,-7.627619999999999,-72.6756,593.52,593.52,593.52,67.66,0.64,18.08,34.51,56.4,450.06,79.14,38.88,45.0,39.12,3.39,0.664,0.5820000000000001,0.7759999999999999,0.648,2721.0,53.0,3078.890196433421,59.97103285959989,110.0,80.0,30.0,48.0,24.736363636363638,0.6625,Confirmados com Mortes,28781.0,699.2529793961289,31806.0,694.378419166195,23385.0,708.8646568313021,6826.0,649.2235569879871,696.259829511663,35989.40888929121
1200252,Epitaciolândia,12,AC,Norte,Municipio,Brasiléia,18411,-11.0188,-68.7341,152.86,152.86,152.86,58.9,0.6,13.02,29.44,52.89,467.83,89.66,45.68,38.98,29.37,2.53,0.653,0.5529999999999999,0.7709999999999999,0.654,354.0,9.0,1922.7635652598988,48.88381945576015,86.0,60.0,26.0,72.0,4.116279069767442,0.15,Confirmados com Mortes,5801.0,712.8426133425271,6800.0,703.5,4754.0,724.442574673959,1929.0,650.077760497667,706.1294337274426,36934.441366574334
1200302,Feijó,12,AC,Norte,Municipio,Cruzeiro do Sul,34780,-8.170539999999999,-70.351,342.38,342.38,342.38,82.09,0.68,36.51,54.93,75.28,259.43,69.53,26.02,62.56,36.26,5.58,0.539,0.38799999999999996,0.723,0.5589999999999999,629.0,9.0,1808.5106382978722,25.87694077055779,91.0,64.0,27.0,67.0,6.912087912087912,0.140625,Confirmados com Mortes,11314.0,673.554887749691,12113.0,671.278791381161,9986.0,678.1694372120971,1766.0,644.8471121177801,672.6399272293131,34827.48706152962
1200328,Jordão,12,AC,Norte,Municipio,Cruzeiro do Sul,8317,-9.43091,-71.8974,450.51,450.51,450.51,105.47,0.71,49.17,69.69,81.69,178.03,46.28,8.66,68.55,64.96,4.21,0.469,0.28300000000000003,0.731,0.499,72.0,1.0,865.696765660695,12.023566189731875,59.0,20.0,39.0,99.0,1.2203389830508475,0.05,Confirmados com Mortes,2998.0,660.040026684456,3198.0,661.9136960600371,2688.0,662.5,392.0,658.163265306122,661.3195342820179,38451.36467476253
1200336,Mâncio Lima,12,AC,Norte,Municipio,Cruzeiro do Sul,18977,-7.616569999999999,-72.8997,616.26,616.26,616.26,75.06,0.61,28.99,45.68,68.67,295.5,80.26,28.19,50.03,47.93,4.12,0.625,0.546,0.77,0.58,371.0,7.0,1954.9981556621174,36.88675765400222,94.0,60.0,34.0,64.0,3.9468085106382977,0.11666666666666667,Confirmados com Mortes,7014.0,659.2814371257491,7372.0,659.9023331524689,6244.0,663.516976297245,924.0,639.61038961039,659.8775169342119,38847.025346472044
1200344,Manoel Urbano,12,AC,Norte,Municipio,Acre,9459,-8.83291,-69.2679,202.99,202.99,202.99,78.87,0.59,25.44,38.12,64.89,307.7,80.41,30.12,55.35,31.93,4.56,0.551,0.373,0.767,0.586,148.0,2.0,1564.6474257321072,21.14388413151496,63.0,32.0,31.0,95.0,2.3492063492063493,0.0625,Confirmados com Mortes,4159.0,667.083433517673,4405.0,666.606129398411,3514.0,673.420603301081,640.0,645.9375,667.6049693348012,46569.404799661694
1200351,Marechal Thaumaturgo,12,AC,Norte,Municipio,Cruzeiro do Sul,18867,-8.93898,-72.7997,557.73,557.73,557.73,97.78,0.59,39.31,63.82,82.84,157.27,50.76,9.33,63.63,40.2,4.01,0.501,0.361,0.726,0.479,258.0,1.0,1367.4670058832883,5.300259712725924,81.0,37.0,44.0,77.0,3.185185185185185,0.02702702702702703,Confirmados com Mortes,6090.0,655.5665024630539,6304.0,654.8223350253809,5336.0,656.784107946027,669.0,643.04932735426,655.2095222566444,33412.837229024226
1200385,Plácido de Castro,12,AC,Norte,Municipio,Acre,19761,-10.2806,-67.1371,82.54,82.54,82.54,66.37,0.55,18.76,36.79,62.29,321.16,91.46,44.68,43.73,30.89,2.93,0.622,0.517,0.7859999999999999,0.593,357.0,8.0,1806.5887353878852,40.4837811851627,117.0,108.0,9.0,41.0,3.051282051282051,0.07407407407407407,Confirmados com Mortes,4857.0,700.308832612724,5545.0,693.273219116321,3897.0,712.2401847575059,1447.0,651.416724257084,696.2911215546806,28060.320833965892
1200393,Porto Walter,12,AC,Norte,Municipio,Cruzeiro do Sul,11982,-8.26323,-72.7537,573.67,573.67,573.67,106.25,0.61,34.92,53.25,76.87,204.19,44.36,17.37,68.08,39.53,3.11,0.532,0.397,0.726,0.521,216.0,1.0,1802.7040560841263,8.345852111500584,67.0,11.0,56.0,91.0,3.2238805970149254,0.09090909090909091,Confirmados com Mortes,3481.0,647.22780810112,3630.0,647.272727272727,3024.0,649.404761904762,415.0,637.590361445783,647.4881516587676,30295.44316474712
1200401,Rio Branco,12,AC,Norte,Capital,Acre,407319,-9.97499,-67.8243,0.0,0.0,0.0,50.39,0.59,4.85,14.38,35.25,744.67,94.09,62.1,39.42,18.43,1.64,0.727,0.6609999999999999,0.7979999999999999,0.7290000000000001,8904.0,350.0,2186.0016350820856,85.9277372280694,137.0,117.0,20.0,21.0,64.99270072992701,2.9914529914529915,Confirmados com Mortes,96063.0,730.926579432248,119340.0,714.5098039215691,74228.0,743.8082664223741,40661.0,664.7204938393049,719.7395032274475,29298.90331656515
1200427,Rodrigues Alves,12,AC,Norte,Municipio,Cruzeiro do Sul,18930,-7.738639999999999,-72.661,586.67,586.67,586.67,85.52,0.63,40.9,60.87,78.78,200.58,71.48,10.89,57.15,52.64,4.06,0.5670000000000001,0.47700000000000004,0.736,0.518,126.0,6.0,665.6101426307449,31.695721077654518,81.0,63.0,18.0,77.0,1.5555555555555556,0.09523809523809523,Confirmados com Mortes,5375.0,649.8976744186051,5557.0,651.718553176174,4780.0,654.3514644351461,609.0,650.246305418719,651.835059126279,29355.520338087692
1200435,Santa Rosa do Purus,12,AC,Norte,Municipio,Acre,6540,-9.44652,-70.4902,298.04,298.04,298.04,92.26,0.78,63.05,73.4,79.49,201.58,65.93,28.21,79.03,39.87,5.44,0.517,0.34,0.7809999999999999,0.519,183.0,2.0,2798.165137614679,30.58103975535168,85.0,56.0,29.0,73.0,2.152941176470588,0.03571428571428571,Confirmados com Mortes,2129.0,683.4194457491778,2201.0,684.5070422535211,1976.0,688.663967611336,178.0,660.674157303371,684.7624922887106,33654.43425076453
1200450,Senador Guiomard,12,AC,Norte,Municipio,Acre,23024,-10.1497,-67.7362,21.69,21.69,21.69,61.95,0.55,8.29,23.3,48.99,455.06,92.31,52.88,44.42,29.76,3.0,0.64,0.513,0.7859999999999999,0.649,350.0,9.0,1520.1528839471855,39.08964558721335,104.0,65.0,39.0,54.0,3.3653846153846154,0.13846153846153847,Confirmados com Mortes,8170.0,783.671970624235,8891.0,772.4215498819029,6663.0,806.6636650157591,1733.0,663.0121177149451,777.5464508779512,38616.226546212645
1200500,Sena Madureira,12,AC,Norte,Municipio,Acre,45848,-9.06596,-68.6571,136.23,136.23,136.23,64.85,0.54,21.19,37.59,58.9,320.8,82.48,36.48,52.76,40.8,3.71,0.603,0.456,0.81,0.593,1010.0,9.0,2202.9314255801783,19.6300820101204,89.0,74.0,15.0,69.0,11.348314606741573,0.12162162162162163,Confirmados com Mortes,16185.0,684.633920296571,17204.0,682.3761915833529,13869.0,691.4557646549861,2619.0,639.404352806415,683.377107684905,37523.99232245681
1200609,Tarauacá,12,AC,Norte,Municipio,Cruzeiro do Sul,42567,-8.15697,-70.7722,381.62,381.62,381.62,85.98,0.65,34.59,54.76,73.09,251.53,60.4,19.3,64.5,41.95,4.82,0.539,0.392,0.72,0.5539999999999999,1174.0,11.0,2758.005027368619,25.841614396128456,91.0,86.0,5.0,67.0,12.901098901098901,0.12790697674418605,Confirmados com Mortes,15039.0,700.538599640933,15735.0,698.4938036224979,13312.0,706.730769230769,1862.0,649.9462943071969,699.5821363280228,36965.25477482557
1200708,Xapuri,12,AC,Norte,Municipio,Brasiléia,19323,-10.6516,-68.4969,105.24,105.24,105.24,64.36,0.58,19.07,33.64,58.29,382.24,86.75,51.78,46.94,17.68,5.96,0.599,0.44799999999999995,0.773,0.621,417.0,6.0,2158.0499922372305,31.051079024996117,94.0,64.0,30.0,64.0,4.4361702127659575,0.09375,Confirmados com Mortes,5668.0,703.846153846154,6358.0,695.596099402328,4611.0,715.2895250487959,1485.0,646.8686868686871,699.1943494095575,32903.793406820885
1200807,Porto Acre,12,AC,Norte,Municipio,Acre,18504,-9.581380000000001,-67.5478,53.23,53.23,53.23,67.08,0.6,21.4,41.47,66.0,319.71,84.45,40.21,50.45,38.64,3.53,0.5760000000000001,0.418,0.7709999999999999,0.593,418.0,12.0,2258.9710332900995,64.85084306095979,125.0,66.0,59.0,33.0,3.344,0.18181818181818182,Confirmados com Mortes,6865.0,703.2192279679531,7421.0,698.153887616224,5478.0,716.6484118291351,1461.0,641.889117043121,700.6925795053003,40104.84219628189
1300029,Alvarães,13,AM,Norte,Municipio,Triângulo,16041,-3.22727,-64.8007,530.78,530.78,530.78,91.67,0.58,30.88,60.76,81.17,178.67,48.93,25.53,72.73,44.97,3.89,0.527,0.377,0.778,0.499,1148.0,13.0,7156.661056043888,81.04232903185589,89.0,80.0,9.0,69.0,12.898876404494382,0.1625,Confirmados com Mortes,5348.0,698.952879581152,5568.0,697.629310344827,4585.0,706.39040348964,797.0,647.4278544542029,698.0733832372069,34711.05292687489
1300060,Amaturá,13,AM,Norte,Municipio,Alto Solimões,11536,-3.37455,-68.2005,908.48,735.11,735.11,74.76,0.64,42.81,62.64,82.44,178.69,66.65,37.25,69.07,26.95,8.73,0.56,0.455,0.773,0.499,506.0,8.0,4386.26907073509,69.34812760055479,99.0,90.0,9.0,59.0,5.111111111111111,0.08888888888888889,Confirmados com Mortes,3626.0,667.1814671814672,3739.0,667.5581706338589,3009.0,673.379860418744,509.0,648.330058939096,668.1429752825507,32411.58113730929
1300086,Anamã,13,AM,Norte,Municipio,Rio Negro e Solimões,13614,-3.5669699999999995,-61.3963,160.58,160.58,160.58,74.76,0.58,32.44,51.08,71.21,226.82,58.47,46.79,67.42,38.88,7.02,0.594,0.526,0.741,0.537,494.0,0.0,3628.617599529896,0.0,109.0,,,49.0,4.532110091743119,,Confirmados sem Mortes,4128.0,663.662790697674,4348.0,664.167433302668,3697.0,669.62401947525,499.0,639.679358717435,664.6306818181816,31937.71117966799
1300102,Anori,13,AM,Norte,Municipio,Rio Negro e Solimões,21010,-3.74603,-61.6575,194.56,194.56,194.56,74.03,0.6,32.25,52.29,74.62,229.94,66.86,52.94,65.45,29.24,3.44,0.561,0.433,0.757,0.54,709.0,11.0,3374.5835316515945,52.356020942408385,125.0,90.0,35.0,33.0,5.672,0.12222222222222222,Confirmados com Mortes,5511.0,710.2885138813281,5766.0,706.7637877211241,4896.0,720.3431372549021,705.0,635.744680851064,708.8873089228583,27444.07425035697
1300144,Apuí,13,AM,Norte,Municipio,Amazonas,21973,-7.194089999999999,-59.896,453.38,453.38,453.38,51.3,0.56,16.56,26.84,56.97,380.62,86.73,46.5,44.68,41.58,3.09,0.637,0.54,0.772,0.621,102.0,0.0,464.20607108724346,0.0,85.0,,,73.0,1.2,,Confirmados sem Mortes,4702.0,671.969374734156,5255.0,669.1912464319701,3842.0,678.084331077564,1229.0,645.40276647681,670.3886079318607,23915.71474081828
1300201,Atalaia do Norte,13,AM,Norte,Municipio,Alto Solimões,19921,-4.37055,-70.1967,1137.57,675.88,675.88,72.92,0.65,44.75,63.67,83.46,159.21,36.29,17.52,69.88,44.58,8.38,0.45,0.259,0.733,0.48100000000000004,777.0,4.0,3900.4066060940713,20.07931328748557,93.0,63.0,30.0,65.0,8.35483870967742,0.06349206349206349,Confirmados com Mortes,3886.0,739.4235717961909,3954.0,737.7845220030349,3505.0,751.1554921540659,497.0,656.740442655936,738.8785678094916,19848.401184679486
1300300,Autazes,13,AM,Norte,Municipio,Entorno de Manaus,39565,-3.58574,-59.1256,112.16,112.16,112.16,80.29,0.59,34.3,51.58,73.21,228.43,57.01,24.55,67.07,54.16,5.47,0.5770000000000001,0.446,0.799,0.539,1157.0,35.0,2924.3017818779226,88.46202451661821,103.0,97.0,6.0,55.0,11.233009708737864,0.36082474226804123,Confirmados com Mortes,16058.0,718.6324573421349,16896.0,715.092329545455,13809.0,728.5683250054309,2652.0,642.986425339367,716.1388242436507,42704.410463793756
1300409,Barcelos,13,AM,Norte,Municipio,Amazonas,27502,-0.9833729999999999,-62.9311,401.15,401.15,401.15,61.28,0.74,47.37,60.97,74.74,237.29,49.81,37.94,72.88,14.04,5.33,0.5,0.315,0.728,0.545,2106.0,24.0,7657.624900007272,87.26638062686352,101.0,101.0,0.0,57.0,20.85148514851485,0.2376237623762376,Confirmados com Mortes,5903.0,708.96154497713,5931.0,709.9645928174,4856.0,718.492586490939,1043.0,665.004793863854,709.3216037895447,21565.70431241364
1300508,Barreirinha,13,AM,Norte,Municipio,Baixo Amazonas,32041,-2.79886,-57.0679,329.88,329.88,266.1,94.49,0.6,46.23,68.75,83.65,148.28,55.14,35.69,74.59,47.48,6.78,0.574,0.522,0.774,0.469,757.0,9.0,2362.5979214131894,28.08901095471428,91.0,87.0,4.0,67.0,8.31868131868132,0.10344827586206896,Confirmados com Mortes,12082.0,687.1047839761629,12589.0,684.7883072523631,10275.0,693.313868613139,1812.0,640.0662251655631,685.7282768376953,39290.284323210886
1300607,Benjamin Constant,13,AM,Norte,Municipio,Alto Solimões,42984,-4.377680000000001,-70.0342,1119.77,668.4,668.4,81.57,0.56,28.08,52.87,78.14,211.1,53.48,22.34,71.69,43.94,7.63,0.574,0.47100000000000003,0.763,0.526,1525.0,35.0,3547.83175134934,81.42564675227992,101.0,93.0,8.0,57.0,15.099009900990099,0.3763440860215054,Confirmados com Mortes,11756.0,709.527050017013,12062.0,708.638700049743,10115.0,718.813643104301,1653.0,654.80943738657,709.3238914179736,28061.604317885725
1300631,Beruri,13,AM,Norte,Municipio,Rio Negro e Solimões,19679,-3.89874,-61.3616,172.21,172.21,172.21,94.16,0.65,43.29,64.14,78.54,193.4,54.61,21.95,74.68,31.46,5.52,0.506,0.34600000000000003,0.731,0.512,547.0,7.0,2779.6127852025,35.570913156156315,102.0,102.0,0.0,56.0,5.362745098039215,0.06862745098039216,Confirmados com Mortes,8296.0,712.1022179363549,8641.0,710.7510704779542,7642.0,717.3776498298879,872.0,646.7889908256881,710.9897450001968,43909.75151176381
1300680,Boa Vista do Ramos,13,AM,Norte,Municipio,Baixo Amazonas,19207,-2.9740900000000003,-57.5873,270.73,270.73,270.73,83.5,0.59,40.05,61.77,80.82,175.55,58.8,36.65,75.22,48.58,6.47,0.565,0.484,0.75,0.496,291.0,2.0,1515.0726297703961,10.412870307700318,90.0,76.0,14.0,68.0,3.2333333333333334,0.02631578947368421,Confirmados com Mortes,6041.0,701.407051812614,6357.0,699.0089664936289,4750.0,717.3473684210529,1177.0,649.957519116398,701.4024556616645,33097.30827302546
1300706,Boca do Acre,13,AM,Norte,Municipio,Amazonas,34308,-8.74232,-67.3919,1027.14,145.04,145.04,69.58,0.63,27.28,49.75,72.02,288.42,67.42,28.18,51.55,36.89,5.15,0.588,0.455,0.777,0.5760000000000001,880.0,11.0,2564.999417045587,32.06249271306984,128.0,82.0,46.0,30.0,6.875,0.13414634146341464,Confirmados com Mortes,11132.0,743.4243621990661,12201.0,735.0381116301941,9197.0,764.0752419267151,2580.0,640.93023255814,738.3879236684705,35563.1339629241
1300805,Borba,13,AM,Norte,Municipio,Amazonas,41161,-4.39154,-59.5874,149.5,149.5,149.5,79.27,0.64,36.98,56.26,76.04,219.83,54.65,30.97,74.85,46.19,7.01,0.56,0.425,0.7759999999999999,0.532,656.0,22.0,1593.7416486479922,53.44865285099973,96.0,94.0,2.0,62.0,6.833333333333333,0.23404255319148937,Confirmados com Mortes,11286.0,711.0579479000529,11933.0,708.0030168440459,9935.0,720.8454957221942,1679.0,646.456223942823,709.6890879338557,28991.035203226354
1300839,Caapiranga,13,AM,Norte,Municipio,Rio Negro e Solimões,13081,-3.3153699999999997,-61.2206,134.94,134.94,134.94,73.19,0.58,29.67,50.44,71.15,235.49,29.69,43.17,65.16,32.74,5.03,0.569,0.436,0.775,0.544,235.0,5.0,1796.4987386285454,38.22337741762862,99.0,82.0,17.0,59.0,2.3737373737373737,0.06097560975609756,Confirmados com Mortes,4230.0,687.375886524823,4436.0,684.8061316501351,3627.0,695.6162117452441,601.0,634.9417637271209,686.3657515123314,33911.780444920114
1300904,Canutama,13,AM,Norte,Municipio,Amazonas,15629,-6.5258199999999995,-64.3953,615.1,254.44,254.44,59.59,0.61,34.1,57.35,77.38,206.44,73.71,53.11,51.74,33.58,6.93,0.53,0.379,0.752,0.522,239.0,0.0,1529.2085226182098,0.0,104.0,,,54.0,2.298076923076923,,Confirmados sem Mortes,4918.0,676.982513216755,5176.0,677.666151468315,4485.0,679.732441471572,486.0,658.0246913580249,677.4244938599403,33117.921812016124
1301001,Carauari,13,AM,Norte,Municipio,Triângulo,28294,-4.88161,-66.9086,788.7,544.39,544.39,81.66,0.54,23.92,48.31,75.35,222.32,64.62,31.13,59.13,38.15,3.93,0.5489999999999999,0.41600000000000004,0.745,0.534,835.0,7.0,2951.1557220612144,24.740227610094017,107.0,107.0,0.0,51.0,7.803738317757009,0.06542056074766354,Confirmados com Mortes,11838.0,729.3968575772931,12225.0,726.625766871166,10262.0,739.154160982265,1461.0,654.2094455852161,728.1786173363886,43207.04036191419
1301100,Careiro,13,AM,Norte,Municipio,Entorno de Manaus,37869,-3.7680300000000004,-60.369,81.88,81.88,81.88,68.04,0.66,41.27,60.88,76.77,197.06,56.5,32.3,68.87,53.81,7.64,0.557,0.431,0.779,0.515,1113.0,16.0,2939.0794581319815,42.25091763711743,112.0,108.0,4.0,46.0,9.9375,0.14814814814814814,Confirmados com Mortes,12160.0,723.9473684210529,12850.0,720.0466926070042,10068.0,742.789034564958,2249.0,637.083148065807,722.452916119699,33932.76822730994
1301159,Careiro da Várzea,13,AM,Norte,Municipio,Entorno de Manaus,30225,-3.3139999999999996,-59.5557,56.06,56.06,56.06,62.49,0.57,30.36,54.97,75.23,207.18,14.95,16.07,49.87,72.6,3.89,0.568,0.45,0.779,0.523,130.0,4.0,430.10752688172045,13.234077750206783,123.0,78.0,45.0,35.0,1.056910569105691,0.05128205128205128,Confirmados com Mortes,8098.0,682.3907137564829,8507.0,680.8980839308799,7230.0,690.5394190871369,1104.0,623.913043478261,681.6552387826295,28145.574855252275
1301209,Coari,13,AM,Norte,Municipio,Amazonas,85097,-4.094119999999999,-63.1441,363.14,363.14,363.14,68.5,0.64,21.98,40.38,63.59,347.2,32.29,51.77,65.54,28.24,3.56,0.586,0.425,0.78,0.606,6730.0,95.0,7908.621925567294,111.63730801320843,106.0,98.0,8.0,52.0,63.490566037735846,0.9693877551020408,Confirmados com Mortes,24599.0,738.956868165373,26645.0,732.812910489773,20240.0,755.128458498024,6096.0,660.3346456692909,734.8878576952825,31311.327073809887
1301308,Codajás,13,AM,Norte,Municipio,Amazonas,28637,-3.8305300000000004,-62.0658,240.34,240.34,240.34,70.28,0.61,29.32,54.32,77.17,239.64,63.71,47.59,68.04,17.27,4.8,0.563,0.42100000000000004,0.775,0.546,188.0,3.0,656.493347766875,10.475957677130983,99.0,85.0,14.0,59.0,1.898989898989899,0.03529411764705882,Confirmados com Mortes,7653.0,726.9306154449241,8223.0,722.8748631886172,6507.0,743.015214384509,1364.0,650.5865102639301,725.5484903356215,28714.599993016025
1301407,Eirunepé,13,AM,Norte,Municipio,Triângulo,35273,-6.65677,-69.8662,1159.34,431.97,431.97,79.67,0.62,32.2,55.41,74.5,241.86,52.29,23.75,53.4,37.26,4.5,0.563,0.431,0.7559999999999999,0.5479999999999999,1326.0,4.0,3759.2492841550197,11.340118504238369,92.0,17.0,75.0,66.0,14.41304347826087,0.23529411764705882,Confirmados com Mortes,11100.0,762.756756756757,11578.0,757.643807220591,9330.0,781.2861736334401,1778.0,643.194600674916,759.829515183804,32823.97301051796
1301506,Envira,13,AM,Norte,Municipio,Triângulo,20033,-7.4378899999999994,-70.0281,1207.35,371.82,371.82,82.08,0.64,35.87,57.67,80.07,204.98,44.82,24.55,55.43,43.97,6.45,0.509,0.349,0.727,0.521,85.0,0.0,424.29990515649183,0.0,26.0,,,132.0,3.269230769230769,,Confirmados sem Mortes,5805.0,696.330749354005,6010.0,695.7404326123129,5262.0,698.2896237172179,607.0,667.215815485997,695.7136394480887,30000.499176359008
1301605,Fonte Boa,13,AM,Norte,Municipio,Triângulo,17609,-2.52342,-66.0942,677.7,677.7,677.7,80.4,0.62,37.8,59.94,78.03,200.4,67.64,31.25,72.65,28.37,8.0,0.53,0.4,0.7190000000000001,0.518,728.0,18.0,4134.249531489579,102.22045544891816,94.0,84.0,10.0,64.0,7.74468085106383,0.21428571428571427,Confirmados com Mortes,7732.0,763.347128815313,8221.0,757.1341685926291,6501.0,784.1255191508999,1387.0,635.039653929344,759.4060651818298,46686.35356919757
1301654,Guajará,13,AM,Norte,Municipio,Amazonas,16678,-7.53797,-72.5907,1475.48,589.72,589.72,82.74,0.74,51.48,67.87,83.14,191.04,62.11,15.92,66.36,70.08,4.74,0.532,0.387,0.762,0.51,770.0,9.0,4616.860534836311,53.963304952632214,79.0,72.0,7.0,79.0,9.746835443037975,0.125,Confirmados com Mortes,5232.0,690.940366972477,5490.0,688.5245901639349,4743.0,696.1416824794429,591.0,633.5025380710659,689.5366218236173,32917.61602110565
1301704,Humaitá,13,AM,Norte,Municipio,Amazonas,55080,-7.511710000000001,-63.0327,591.38,168.53,168.53,66.1,0.66,25.86,41.89,63.98,382.13,77.32,58.58,56.12,26.98,4.84,0.605,0.451,0.7909999999999999,0.621,2252.0,61.0,4088.5984023238925,110.74800290486566,97.0,73.0,24.0,61.0,23.216494845360824,0.8356164383561644,Confirmados com Mortes,17494.0,732.319652452269,18552.0,727.0698576972829,13732.0,752.7090008738709,3888.0,652.623456790123,729.9481981142619,33681.917211328975
1301803,Ipixuna,13,AM,Norte,Municipio,Amazonas,29689,-7.047910000000001,-71.6934,1364.36,535.66,535.66,91.7,0.58,39.53,68.07,86.43,154.54,41.52,15.3,68.8,53.7,6.85,0.48100000000000004,0.302,0.772,0.47600000000000003,551.0,0.0,1855.9062278958538,0.0,40.0,,,118.0,13.775,,Confirmados sem Mortes,6436.0,717.8371659415791,6637.0,716.890161217417,6000.0,723.1,500.0,637.2,717.0694323813417,22355.08100643336
1301852,Iranduba,13,AM,Norte,Municipio,Entorno de Manaus,48296,-3.2747900000000003,-60.19,25.55,25.55,25.55,70.25,0.56,16.69,34.86,59.84,349.23,70.95,55.44,62.14,30.34,3.62,0.613,0.47600000000000003,0.799,0.607,1596.0,46.0,3304.6215007454034,95.24598310419084,118.0,109.0,9.0,40.0,13.525423728813559,0.42201834862385323,Confirmados com Mortes,23465.0,772.853185595568,25028.0,765.5106280965321,18909.0,798.2230683801358,4776.0,652.638190954774,768.998863919754,51822.09706808018
1301902,Itacoatiara,13,AM,Norte,Municipio,Médio Amazonas,101337,-3.13861,-58.4449,175.03,175.03,175.03,68.47,0.59,17.45,36.6,58.58,373.71,78.88,62.11,59.14,24.77,3.78,0.644,0.534,0.8109999999999999,0.618,1971.0,60.0,1944.9954113502474,59.20838390716125,125.0,106.0,19.0,33.0,15.768,0.5660377358490566,Confirmados com Mortes,32091.0,720.01495746471,36049.0,713.3790119004691,24869.0,734.1187824198801,9017.0,666.740601086836,716.3997412424285,35573.38385782093
1301951,Itamarati,13,AM,Norte,Municipio,Triângulo,7851,-6.43852,-68.2437,982.94,395.94,395.94,81.16,0.8,55.51,74.2,88.6,214.95,52.1,19.03,59.27,39.48,6.16,0.47700000000000004,0.266,0.772,0.529,509.0,4.0,6483.250541332314,50.94892370398676,80.0,52.0,28.0,78.0,6.3625,0.07692307692307693,Confirmados com Mortes,3508.0,705.1881413911059,3601.0,703.9711191335741,3005.0,709.6173044925121,497.0,668.8128772635821,704.3256997455469,45866.768564514074
1302009,Itapiranga,13,AM,Norte,Municipio,Médio Amazonas,9148,-2.7408099999999997,-58.0293,225.15,225.15,225.15,71.05,0.67,27.79,49.37,69.41,321.94,82.78,48.43,61.75,37.49,4.03,0.654,0.594,0.792,0.594,555.0,6.0,6066.899868823786,65.58810668998689,97.0,94.0,3.0,61.0,5.721649484536083,0.06382978723404255,Confirmados com Mortes,3588.0,736.120401337793,3823.0,731.6766936960499,2849.0,756.4759564759571,733.0,651.568894952251,734.2126807968709,41790.55531263664
1302108,Japurá,13,AM,Norte,Municipio,Triângulo,2755,-1.88237,-66.9291,779.59,779.59,779.59,77.78,0.59,22.55,52.07,80.03,248.6,48.06,31.51,73.99,32.9,4.23,0.522,0.345,0.748,0.552,375.0,1.0,13611.615245009074,36.297640653357526,82.0,40.0,42.0,76.0,4.573170731707317,0.025,Confirmados com Mortes,2042.0,714.88736532811,2134.0,712.4648547328959,1830.0,718.360655737705,374.0,689.839572192513,713.6050156739811,77459.16515426498
1302207,Juruá,13,AM,Norte,Municipio,Triângulo,14712,-3.4843800000000003,-66.0718,672.91,633.91,633.91,83.71,0.6,32.23,56.2,76.19,227.39,47.97,27.35,67.17,44.39,4.1,0.522,0.376,0.7040000000000001,0.5379999999999999,416.0,6.0,2827.6237085372486,40.78303425774878,104.0,42.0,62.0,54.0,4.0,0.14285714285714285,Confirmados com Mortes,3647.0,700.520976144776,3783.0,699.127676447264,3071.0,713.3181374145229,577.0,643.67417677643,700.6318830113737,25713.703099510603
1302306,Jutaí,13,AM,Norte,Municipio,Triângulo,14317,-2.75814,-66.7595,749.35,738.58,738.58,95.88,0.69,40.95,62.09,83.11,214.36,63.7,14.65,77.25,30.97,5.98,0.516,0.34,0.7659999999999999,0.528,316.0,16.0,2207.1663057903193,111.75525598938324,107.0,84.0,23.0,51.0,2.953271028037383,0.19047619047619047,Confirmados com Mortes,7044.0,731.516183986371,7434.0,728.974979822437,6130.0,739.7716150081571,1035.0,667.246376811594,729.9080534121886,51924.285814067196
1302405,Lábrea,13,AM,Norte,Municipio,Amazonas,46069,-7.264130000000001,-64.7948,701.28,193.4,193.4,73.3,0.59,33.28,52.41,73.07,227.62,48.22,41.87,59.85,27.65,4.81,0.531,0.374,0.7440000000000001,0.5379999999999999,1560.0,19.0,3386.2250103106207,41.24248409993705,109.0,52.0,57.0,49.0,14.311926605504587,0.36538461538461536,Confirmados com Mortes,15536.0,708.59938208033,15828.0,708.1122062168309,13628.0,717.4640446140301,1576.0,647.9695431472079,708.9761209414191,34357.159912305455
1302504,Manacapuru,13,AM,Norte,Municipio,Rio Negro e Solimões,97377,-3.29066,-60.6216,69.35,69.35,69.35,71.65,0.56,16.16,35.47,61.05,342.58,70.31,55.6,64.38,26.84,3.62,0.614,0.48100000000000004,0.795,0.604,3401.0,136.0,3492.611191554474,139.66337020035533,127.0,120.0,7.0,31.0,26.77952755905512,1.1333333333333333,Confirmados com Mortes,39860.0,740.9382839939791,42891.0,734.181996222984,32463.0,762.0552629147029,8129.0,643.3263624061999,737.7135305611183,44046.33537693706
1302553,Manaquiri,13,AM,Norte,Municipio,Entorno de Manaus,32105,-3.44078,-60.4612,60.57,60.57,60.57,73.52,0.57,21.99,50.5,73.87,254.15,41.09,31.34,66.25,56.76,4.74,0.596,0.51,0.748,0.556,431.0,12.0,1342.4700202460676,37.37735555209469,100.0,98.0,2.0,58.0,4.31,0.12244897959183673,Confirmados com Mortes,6794.0,655.9022667059171,7036.0,655.940875497442,5914.0,659.959418329388,827.0,639.177750906892,656.409508531428,21915.589472044852
1302603,Manaus,13,AM,Norte,Capital,Entorno de Manaus,2182763,-3.1186599999999998,-60.0212,0.0,0.0,0.0,47.41,0.61,3.75,12.9,33.5,790.27,89.65,83.55,50.19,6.45,1.64,0.737,0.6579999999999999,0.826,0.738,35592.0,2013.0,1630.593884906424,92.22256378727329,141.0,124.0,17.0,17.0,252.4255319148936,16.233870967741936,Confirmados com Mortes,563092.0,740.0978880893349,715504.0,721.569131688991,436981.0,750.89077099462,256552.0,673.086937540927,727.0495996965714,32779.73834080933
1302702,Manicoré,13,AM,Norte,Municipio,Amazonas,55751,-5.80462,-61.2895,330.1,330.1,330.1,71.63,0.6,26.72,47.59,68.47,295.23,61.74,30.63,67.24,52.96,5.09,0.5820000000000001,0.456,0.747,0.58,839.0,18.0,1504.9057416010476,32.286416387150005,115.0,114.0,1.0,43.0,7.2956521739130435,0.15789473684210525,Confirmados com Mortes,15888.0,685.083081570997,17020.0,683.3372502937721,13105.0,694.544067149943,3095.0,649.6284329563811,684.7682658629958,30528.600383849618
1302801,Maraã,13,AM,Norte,Municipio,Triângulo,18224,-1.85313,-65.57300000000001,632.59,632.59,632.59,83.01,0.69,52.14,70.9,85.3,144.99,49.73,29.03,82.75,24.7,5.48,0.498,0.348,0.763,0.466,373.0,4.0,2046.7515364354697,21.94907813871817,101.0,76.0,25.0,57.0,3.6930693069306932,0.05263157894736842,Confirmados com Mortes,5576.0,692.647058823529,5721.0,691.6622968012589,5151.0,692.719860221316,525.0,657.1428571428571,691.239026689448,31392.66900790167
1302900,Maués,13,AM,Norte,Municipio,Baixo Amazonas,63905,-3.39289,-57.7067,258.75,258.75,258.75,82.46,0.64,34.31,54.17,76.2,244.3,53.85,40.49,71.87,49.39,4.96,0.588,0.46399999999999997,0.8,0.5489999999999999,1182.0,32.0,1849.6205304749237,50.074329082231436,107.0,105.0,2.0,51.0,11.046728971962617,0.3047619047619048,Confirmados com Mortes,19264.0,751.650747508306,20258.0,747.0826340211271,16386.0,766.8253387037721,3364.0,655.1129607609989,748.8055068160347,31700.17995462014
1303007,Nhamundá,13,AM,Norte,Municipio,Baixo Amazonas,21173,-2.2079299999999997,-56.7112,381.35,381.35,224.96,74.35,0.65,43.78,62.76,78.54,195.12,47.52,35.61,66.54,46.25,7.0,0.586,0.503,0.779,0.513,489.0,8.0,2309.5451754593114,37.78397015066358,100.0,88.0,12.0,58.0,4.89,0.09090909090909091,Confirmados com Mortes,7672.0,670.1511991657981,7804.0,670.271655561251,6674.0,673.3593047647589,843.0,646.975088967972,670.2735615187235,36858.262881972325
1303106,Nova Olinda do Norte,13,AM,Norte,Municipio,Entorno de Manaus,37378,-3.9003699999999997,-59.093999999999994,134.7,134.7,134.7,72.89,0.63,33.18,58.68,75.71,232.07,55.94,25.53,75.07,62.25,4.92,0.5579999999999999,0.41200000000000003,0.78,0.541,759.0,22.0,2030.6062389640965,58.85815185403178,101.0,86.0,15.0,57.0,7.514851485148514,0.2558139534883721,Confirmados com Mortes,9339.0,738.1946675232891,9758.0,734.720229555237,7773.0,756.0015438054801,1748.0,649.08466819222,736.4036620308896,26106.265717801914
1303205,Novo Airão,13,AM,Norte,Municipio,Rio Negro e Solimões,19454,-2.63637,-60.9434,115.61,115.61,115.61,68.78,0.59,30.88,47.65,69.78,246.44,65.45,44.34,69.66,29.18,5.97,0.57,0.434,0.7759999999999999,0.551,253.0,6.0,1300.5037524416573,30.84198622391282,124.0,115.0,9.0,34.0,2.0403225806451615,0.05217391304347826,Confirmados com Mortes,5282.0,721.090496024233,5695.0,716.20719929763,4310.0,739.6287703016242,1152.0,644.791666666667,718.912342599915,29274.185257530582
1303304,Novo Aripuanã,13,AM,Norte,Municipio,Amazonas,25644,-5.12593,-60.3732,226.59,226.59,226.59,70.09,0.57,31.0,51.32,72.69,219.69,62.61,29.59,68.11,42.07,5.36,0.5539999999999999,0.42100000000000004,0.759,0.532,651.0,10.0,2538.605521759476,38.99547652472313,99.0,87.0,12.0,59.0,6.575757575757576,0.11494252873563218,Confirmados com Mortes,6592.0,726.881067961165,6846.0,723.6634531113059,5647.0,740.995218700195,1027.0,630.3797468354429,724.8210023866349,26696.303228825458
1303403,Parintins,13,AM,Norte,Municipio,Baixo Amazonas,114273,-2.63741,-56.729,369.51,369.51,226.52,73.62,0.59,22.81,42.12,66.21,313.07,73.24,50.17,65.05,36.06,5.34,0.6579999999999999,0.605,0.8,0.589,3416.0,98.0,2989.3325632476613,85.75954074890831,132.0,130.0,2.0,26.0,25.87878787878788,0.7538461538461538,Confirmados com Mortes,36533.0,747.105356800701,39307.0,739.150787391559,29928.0,764.735364875702,7398.0,646.715328467153,742.4420762419811,34397.45171650346
1303502,Pauini,13,AM,Norte,Municipio,Amazonas,19426,-7.71311,-66.992,925.27,267.62,267.62,81.32,0.72,47.23,65.4,80.66,218.21,49.52,15.6,79.94,35.08,6.37,0.496,0.317,0.7240000000000001,0.531,937.0,4.0,4823.432513126737,20.59096056831051,83.0,45.0,38.0,75.0,11.289156626506024,0.08888888888888889,Confirmados com Mortes,6006.0,732.467532467532,6184.0,731.08020698577,5269.0,744.8472195862591,735.0,640.0,731.8456634055183,31833.62503860805
1303536,Presidente Figueiredo,13,AM,Norte,Municipio,Entorno de Manaus,36279,-2.02981,-60.0234,121.07,121.07,121.07,60.76,0.52,12.83,25.21,49.86,396.51,83.42,74.67,53.39,15.92,0.99,0.647,0.5379999999999999,0.802,0.627,1824.0,20.0,5027.701976349955,55.128311144188096,115.0,107.0,8.0,43.0,15.860869565217392,0.18691588785046728,Confirmados com Mortes,10980.0,745.5191256830599,12325.0,734.26369168357,8111.0,767.1803723338679,3259.0,663.516416078552,738.8781542898341,33972.82174260591
1303569,Rio Preto da Eva,13,AM,Norte,Municipio,Entorno de Manaus,33347,-2.7045,-59.6858,59.23,59.23,59.23,58.28,0.55,18.28,35.59,59.58,315.24,79.11,71.7,57.89,21.13,1.72,0.611,0.493,0.785,0.59,834.0,15.0,2500.9746004138306,44.98155756139984,101.0,99.0,2.0,57.0,8.257425742574258,0.15151515151515152,Confirmados com Mortes,8873.0,693.993012509861,9705.0,690.757341576507,7010.0,706.9044222539229,2295.0,654.9019607843139,692.8953125560377,29103.067742225685
1303601,Santa Isabel do Rio Negro,13,AM,Norte,Municipio,Amazonas,25156,-0.41082399999999997,-65.0092,630.82,601.2,601.2,92.7,0.72,55.11,70.85,84.32,141.04,45.24,23.12,87.59,10.38,10.27,0.479,0.32299999999999995,0.737,0.461,1624.0,12.0,6455.716330100176,47.70233741453331,105.0,80.0,25.0,53.0,15.466666666666667,0.15,Confirmados com Mortes,4183.0,751.900549844609,4171.0,753.344521697435,3723.0,763.2554391619659,465.0,651.612903225806,752.0331685536597,16580.53744633487
1303700,Santo Antônio do Içá,13,AM,Norte,Municipio,Alto Solimões,21602,-3.09544,-67.9463,879.94,765.09,765.09,84.71,0.67,55.83,73.16,86.79,122.21,50.55,11.0,77.57,65.89,7.67,0.49,0.353,0.759,0.43799999999999994,1084.0,20.0,5018.053883899639,92.58401999814832,128.0,93.0,35.0,30.0,8.46875,0.21505376344086022,Confirmados com Mortes,8634.0,679.9861014593471,8797.0,679.5953165852,7740.0,685.503875968992,871.0,650.287026406429,680.5007295906615,40723.08119618554
1303809,São Gabriel da Cachoeira,13,AM,Norte,Municipio,Amazonas,45564,-0.11909000000000002,-67.084,852.87,783.91,783.91,74.34,0.8,42.56,56.81,74.33,355.51,43.43,27.52,77.78,10.81,10.44,0.609,0.47600000000000003,0.777,0.61,3359.0,49.0,7372.048108155562,107.54104117285577,97.0,90.0,7.0,61.0,34.628865979381445,0.5444444444444444,Confirmados com Mortes,11859.0,739.1348343030609,11952.0,738.3032128514059,10359.0,746.307558644657,1696.0,687.735849056604,738.4988568560753,26231.235185672904
1303908,São Paulo de Olivença,13,AM,Norte,Municipio,Alto Solimões,39299,-3.47292,-68.9646,993.59,733.87,733.87,81.71,0.64,47.99,66.11,84.66,150.28,38.51,17.23,73.51,51.09,8.11,0.521,0.386,0.78,0.47100000000000003,1033.0,22.0,2628.5656123565486,55.981068220565405,116.0,98.0,18.0,42.0,8.905172413793103,0.22448979591836735,Confirmados com Mortes,9211.0,668.917598523505,9548.0,669.250104733976,8330.0,674.909963985594,1123.0,647.016918967053,669.9276903445345,24295.78360772539
1303957,São Sebastião do Uatumã,13,AM,Norte,Municipio,Médio Amazonas,14020,-2.55915,-57.8731,246.54,246.54,246.54,76.5,0.58,20.35,46.65,72.94,262.79,68.33,43.03,73.32,35.06,3.06,0.5770000000000001,0.46399999999999997,0.7390000000000001,0.561,448.0,2.0,3195.435092724679,14.265335235378032,98.0,64.0,34.0,60.0,4.571428571428571,0.03125,Confirmados com Mortes,3627.0,664.185277088503,3777.0,663.5424940428911,2979.0,666.2638469285,588.0,656.122448979592,664.0962537599127,26940.085592011415
1304005,Silves,13,AM,Norte,Municipio,Médio Amazonas,9171,-2.8174799999999998,-58.248000000000005,199.73,199.73,199.73,78.77,0.56,25.98,51.94,72.6,238.53,54.15,32.66,67.9,52.6,5.04,0.632,0.584,0.7909999999999999,0.546,211.0,5.0,2300.730563733508,54.51968160505941,99.0,90.0,9.0,59.0,2.1313131313131315,0.05555555555555555,Confirmados com Mortes,3792.0,712.341772151899,3940.0,710.10152284264,3291.0,722.1513217866909,455.0,644.835164835165,711.7093570308417,42961.509104786826
1304062,Tabatinga,13,AM,Norte,Municipio,Alto Solimões,65844,-4.2416,-69.9383,1107.5,678.82,678.82,72.87,0.65,25.83,46.19,69.08,338.4,73.56,37.13,66.49,36.62,3.88,0.616,0.505,0.769,0.602,1667.0,78.0,2531.7416924852682,118.46181884454163,115.0,107.0,8.0,43.0,14.495652173913044,0.7289719626168224,Confirmados com Mortes,17955.0,739.782790309106,18769.0,736.2459374500509,14883.0,749.4859907276759,3830.0,678.485639686684,736.9554629579522,28505.254844784646
1304104,Tapauá,13,AM,Norte,Municipio,Amazonas,17156,-5.62085,-63.1808,447.34,358.04,358.04,75.8,0.6,39.66,58.07,76.76,193.97,47.23,46.99,63.26,31.92,3.5,0.502,0.355,0.6940000000000001,0.512,899.0,5.0,5240.149218932152,29.14432268594078,99.0,93.0,6.0,59.0,9.080808080808081,0.053763440860215055,Confirmados com Mortes,5784.0,669.6058091286311,6354.0,670.3493862134089,5060.0,677.786561264822,1125.0,643.1999999999999,670.5015554221471,37036.60526929354
1304203,Tefé,13,AM,Norte,Municipio,Triângulo,59849,-3.3682199999999995,-64.7193,522.3,522.3,522.3,75.27,0.62,15.15,34.38,59.83,421.41,79.11,46.53,65.68,19.28,3.32,0.639,0.511,0.8009999999999999,0.637,3196.0,83.0,5340.105933265384,138.68235058229877,113.0,108.0,5.0,45.0,28.283185840707965,0.7685185185185185,Confirmados com Mortes,22604.0,745.3282604848699,23973.0,740.107621073708,17865.0,762.08228379513,5216.0,665.222392638037,741.8300841252978,40055.807114571675
1304237,Tonantins,13,AM,Norte,Municipio,Alto Solimões,18755,-2.8658200000000003,-67.7919,863.34,784.13,784.13,82.87,0.54,30.93,49.59,78.39,189.15,32.38,9.49,68.99,72.56,3.17,0.5479999999999999,0.41600000000000004,0.779,0.508,548.0,14.0,2921.8874966675553,74.64676086376966,121.0,91.0,30.0,37.0,4.528925619834711,0.15384615384615385,Confirmados com Mortes,5954.0,704.7027208599259,6083.0,703.9618609238859,5290.0,712.173913043478,609.0,650.246305418719,704.8059768064226,32434.01759530792
1304260,Uarini,13,AM,Norte,Municipio,Triângulo,13540,-2.99609,-65.1133,565.57,565.57,565.57,84.85,0.61,26.51,55.68,80.27,223.11,60.95,21.38,76.13,23.73,4.4,0.527,0.37799999999999995,0.7240000000000001,0.535,619.0,9.0,4571.639586410635,66.46971935007386,78.0,57.0,21.0,80.0,7.935897435897436,0.15789473684210525,Confirmados com Mortes,4738.0,720.177289995779,4922.0,717.025599349858,4230.0,728.0851063829791,556.0,639.928057553957,718.3303336563757,36351.55096011817
1304302,Urucará,13,AM,Norte,Municipio,Médio Amazonas,16256,-2.52936,-57.7538,260.2,260.2,260.2,80.49,0.6,31.33,49.07,74.33,246.99,80.65,53.58,65.54,29.65,4.6,0.62,0.575,0.754,0.551,476.0,6.0,2928.149606299213,36.909448818897644,98.0,96.0,2.0,60.0,4.857142857142857,0.0625,Confirmados com Mortes,5802.0,720.889348500517,6147.0,717.7159590043921,4820.0,736.307053941909,994.0,648.893360160966,719.9459550751562,37813.73031496063
1304401,Urucurituba,13,AM,Norte,Municipio,Médio Amazonas,23065,-3.1284099999999997,-58.1496,207.81,207.81,207.81,75.35,0.58,32.03,49.82,72.57,227.55,64.7,46.98,72.31,33.22,4.26,0.588,0.48700000000000004,0.7759999999999999,0.5379999999999999,660.0,4.0,2861.4784305224366,17.342293518317796,97.0,80.0,17.0,61.0,6.804123711340206,0.05,Confirmados com Mortes,6293.0,701.8274273001749,6653.0,702.540207425222,5741.0,712.454276258492,667.0,631.484257871064,702.80045468637,28844.569694342077
1400027,Amajari,14,RR,Norte,Municipio,Secretaria Estadual de Saúde,12796,3.64571,-61.3692,119.52,119.52,119.52,88.88,0.75,59.89,75.51,86.49,121.32,55.65,25.41,73.68,26.96,6.68,0.484,0.319,0.815,0.43700000000000006,248.0,6.0,1938.1056580181307,46.88965301656768,88.0,73.0,15.0,70.0,2.8181818181818183,0.0821917808219178,Confirmados com Mortes,2883.0,729.2403746097809,3097.0,726.50952534711,2522.0,744.6471054718481,501.0,639.520958083832,727.6241252915694,24202.87589871835
1400050,Alto Alegre,14,RR,Norte,Municipio,Secretaria Estadual de Saúde,15510,2.98858,-61.3072,72.53,72.53,72.53,87.23,0.73,51.42,61.63,76.79,201.32,65.14,33.82,68.01,21.22,8.58,0.542,0.379,0.813,0.518,394.0,10.0,2540.296582849774,64.47453255963893,116.0,113.0,3.0,42.0,3.396551724137931,0.08849557522123894,Confirmados com Mortes,4418.0,741.240380262562,4727.0,735.43473661942,3802.0,756.075749605471,847.0,668.7131050767421,738.8864723792952,30477.111540941325
1400100,Boa Vista,14,RR,Norte,Capital,Secretaria Estadual de Saúde,399213,2.82384,-60.6753,0.0,0.0,0.0,49.68,0.58,5.03,13.61,32.27,786.55,98.7,89.2,44.85,4.18,1.18,0.752,0.708,0.816,0.737,24376.0,410.0,6106.013581722038,102.7020663154757,133.0,120.0,13.0,25.0,183.2781954887218,3.4166666666666665,Confirmados com Mortes,105195.0,729.399686296877,129576.0,717.3365438044079,79970.0,731.5243216206079,45379.0,686.7097115405811,720.1516161279573,32457.86084120507
1400159,Bonfim,14,RR,Norte,Municipio,Secretaria Estadual de Saúde,12409,3.3616099999999998,-59.8333,110.98,110.98,110.98,86.2,0.72,34.94,54.19,71.87,329.22,91.78,43.28,69.88,40.25,6.5,0.626,0.509,0.809,0.597,406.0,7.0,3271.818841163671,56.41066967523572,130.0,67.0,63.0,28.0,3.123076923076923,0.1044776119402985,Confirmados com Mortes,4637.0,743.368557256847,4906.0,738.4427231960859,4026.0,746.199701937407,725.0,681.1034482758621,739.3171960263046,39535.820775243774
1400175,Cantá,14,RR,Norte,Municipio,Secretaria Estadual de Saúde,18335,2.60994,-60.6058,25.01,25.01,25.01,73.28,0.66,33.95,47.29,68.88,297.59,93.26,44.13,64.07,38.43,3.11,0.619,0.509,0.8029999999999999,0.581,731.0,7.0,3986.910280883556,38.17834742296155,121.0,71.0,50.0,37.0,6.041322314049586,0.09859154929577464,Confirmados com Mortes,5914.0,741.122759553602,6307.0,735.944188996353,4690.0,759.019189765458,1281.0,663.231850117096,738.4564643799471,34398.69102808836
1400209,Caracaraí,14,RR,Norte,Municipio,Secretaria Estadual de Saúde,21926,1.8276599999999998,-61.1304,121.76,121.76,121.76,67.47,0.56,17.05,35.46,61.64,336.05,88.5,61.25,64.14,21.66,3.77,0.624,0.518,0.78,0.601,614.0,7.0,2800.3283772689956,31.925567819027634,93.0,51.0,42.0,65.0,6.602150537634409,0.13725490196078433,Confirmados com Mortes,7528.0,732.545164718385,8071.0,727.1217940775621,5864.0,749.3860845839021,1690.0,660.710059171598,729.676499805641,36810.17969533887
1400233,Caroebe,14,RR,Norte,Municipio,Secretaria Estadual de Saúde,10169,0.8842030000000001,-59.6959,241.59,241.59,241.59,62.18,0.55,14.79,36.44,61.05,334.97,94.48,59.6,45.95,25.54,1.8,0.639,0.5489999999999999,0.7909999999999999,0.6,718.0,2.0,7060.674599272299,19.66761726816796,102.0,81.0,21.0,56.0,7.03921568627451,0.024691358024691357,Confirmados com Mortes,3785.0,681.321003963012,4075.0,678.478527607362,2974.0,685.541358439812,844.0,654.7393364928911,679.4827881486558,40072.77018389222
1400282,Iracema,14,RR,Norte,Municipio,Secretaria Estadual de Saúde,11950,2.18305,-61.0415,82.05,82.05,82.05,62.85,0.62,36.27,47.85,67.8,261.18,80.99,57.33,57.71,12.25,4.25,0.5820000000000001,0.434,0.81,0.56,188.0,4.0,1573.2217573221758,33.47280334728034,79.0,75.0,4.0,79.0,2.3797468354430378,0.05333333333333334,Confirmados com Mortes,2656.0,756.0993975903621,2837.0,750.581600281988,2203.0,778.393100317748,471.0,652.2292993630571,754.2059507775194,23740.585774058578
1400308,Mucajaí,14,RR,Norte,Municipio,Secretaria Estadual de Saúde,17853,2.43998,-60.9096,49.99,49.99,49.99,61.54,0.71,22.23,37.16,60.16,487.66,94.38,66.41,52.22,16.82,3.24,0.665,0.547,0.813,0.6609999999999999,469.0,8.0,2627.0094661961575,44.81039601187476,107.0,67.0,40.0,51.0,4.383177570093458,0.11940298507462686,Confirmados com Mortes,6650.0,773.142857142857,7002.0,765.895458440446,5327.0,799.2491083161251,1226.0,658.727569331158,770.5716406829993,39220.29910939338
1400407,Normandia,14,RR,Norte,Municipio,Secretaria Estadual de Saúde,11290,3.8853,-59.6204,166.26,166.26,166.26,104.9,0.7,47.59,64.43,77.36,203.43,65.16,35.64,82.4,35.77,6.39,0.594,0.502,0.8009999999999999,0.52,250.0,9.0,2214.348981399469,79.71656333038088,88.0,53.0,35.0,70.0,2.840909090909091,0.16981132075471697,Confirmados com Mortes,3476.0,711.6800920598391,3644.0,711.141602634468,3256.0,716.2776412776409,358.0,660.3351955307261,711.1794298490777,32276.35075287865
1400456,Pacaraima,14,RR,Norte,Municipio,Secretaria Estadual de Saúde,17401,4.4799,-61.1477,191.46,191.46,191.46,83.87,0.74,39.16,51.71,67.64,388.35,79.57,44.16,69.2,31.99,5.7,0.65,0.5579999999999999,0.7879999999999999,0.624,1138.0,20.0,6539.8540313775065,114.93592322280328,112.0,81.0,31.0,46.0,10.160714285714286,0.24691358024691357,Confirmados com Mortes,5061.0,702.548903378779,6365.0,702.560879811469,5085.0,697.8171091445429,1958.0,715.219611848825,702.5935351128919,36578.35756565714
1400472,Rorainópolis,14,RR,Norte,Municipio,Secretaria Estadual de Saúde,30163,0.9399559999999999,-60.4389,211.12,211.12,211.12,58.77,0.57,26.59,42.66,65.32,284.22,87.9,47.32,51.09,37.15,3.26,0.619,0.519,0.7979999999999999,0.574,1224.0,16.0,4057.951795245831,53.04512150648144,107.0,77.0,30.0,51.0,11.439252336448599,0.2077922077922078,Confirmados com Mortes,10174.0,721.6040888539409,11254.0,713.666251999289,7845.0,738.8145315487571,2661.0,661.7812852311159,718.0497275630987,37310.61233962139
1400506,São João da Baliza,14,RR,Norte,Municipio,Secretaria Estadual de Saúde,8201,0.951659,-59.9133,224.74,224.74,224.74,59.78,0.53,13.96,31.23,56.19,365.67,93.77,72.54,44.94,9.65,1.68,0.655,0.5870000000000001,0.78,0.614,700.0,3.0,8535.544445799293,36.58090476771125,88.0,54.0,34.0,70.0,7.954545454545454,0.05555555555555555,Confirmados com Mortes,2189.0,707.9945180447692,2493.0,703.730445246691,1879.0,718.786588610963,546.0,668.131868131868,706.289573659772,30398.73186196805
1400605,São Luiz,14,RR,Norte,Municipio,Secretaria Estadual de Saúde,7986,1.01019,-60.0419,213.6,213.6,213.6,47.86,0.55,18.06,33.52,60.11,344.73,94.87,78.15,41.44,12.03,4.42,0.649,0.574,0.7879999999999999,0.605,178.0,2.0,2228.900576008014,25.043826696719258,106.0,71.0,35.0,52.0,1.679245283018868,0.028169014084507043,Confirmados com Mortes,2211.0,740.027137042062,2377.0,732.015145140934,1850.0,759.2432432432429,488.0,643.032786885246,735.5760900952928,29764.588029050836
1400704,Uiramutã,14,RR,Norte,Municipio,Secretaria Estadual de Saúde,10559,4.60314,-60.1815,205.3,205.3,205.3,118.04,0.78,69.67,78.59,86.91,123.16,47.3,9.57,88.64,21.62,5.4,0.45299999999999996,0.276,0.7659999999999999,0.439,528.0,2.0,5000.473529690312,18.941187612463303,80.0,65.0,15.0,78.0,6.6,0.03076923076923077,Confirmados com Mortes,3181.0,660.735617730274,3318.0,661.3019891500901,2896.0,660.0828729281772,291.0,670.103092783505,661.0158992360109,31423.430249076617
1500107,Abaetetuba,15,PA,Norte,Municipio,Alça Viária,157698,-1.72183,-48.8788,52.41,52.41,0.0,55.37,0.53,18.98,38.95,65.93,293.01,68.86,44.71,62.09,39.8,4.23,0.628,0.537,0.7979999999999999,0.579,2718.0,109.0,1723.547540235133,69.1194561757283,123.0,85.0,38.0,35.0,22.097560975609756,1.2823529411764707,Confirmados com Mortes,65576.0,730.1817738196901,69470.0,725.1734561681301,54322.0,747.144803210486,11965.0,640.618470539072,727.7078273308401,44052.5561516316
1500131,Abel Figueiredo,15,PA,Norte,Municipio,Rodovia BR 222,7434,-4.95333,-48.3933,389.1,389.1,94.68,57.78,0.57,9.38,31.19,58.48,390.12,91.76,63.79,38.23,26.33,3.76,0.622,0.48100000000000004,0.8,0.625,150.0,1.0,2017.7562550443906,13.451708366962604,84.0,76.0,8.0,74.0,1.7857142857142858,0.013157894736842105,Confirmados com Mortes,2841.0,750.3695881731791,3099.0,741.142303969022,2162.0,778.168362627197,742.0,647.708894878706,745.3188602442335,41686.84422921711
1500206,Acará,15,PA,Norte,Municipio,Rodovia PA-140/Rio Capim,55591,-1.95383,-48.1985,64.19,64.19,64.19,69.23,0.53,27.51,53.47,76.53,199.34,64.01,20.25,63.18,55.71,5.4,0.506,0.332,0.757,0.517,662.0,12.0,1190.8402439243764,21.586227986544586,112.0,92.0,20.0,46.0,5.910714285714286,0.13043478260869565,Confirmados com Mortes,24296.0,723.47711557458,25563.0,719.2113601689941,19894.0,742.052880265407,4544.0,635.783450704225,721.6199846561773,45984.062168336604
1500305,Afuá,15,PA,Norte,Municipio,Marajó Oriental,39218,-0.154874,-50.3861,255.66,78.86,78.86,82.38,0.66,45.65,64.88,83.32,163.98,26.56,14.79,78.76,76.98,5.54,0.489,0.311,0.774,0.485,1462.0,9.0,3727.88005507675,22.948646029884237,106.0,68.0,38.0,52.0,13.79245283018868,0.1323529411764706,Confirmados com Mortes,14503.0,688.450665379577,15014.0,686.6790995071269,12629.0,694.164225195977,1776.0,637.5,687.4277127635354,38283.44127696466
1500347,Água Azul do Norte,15,PA,Norte,Municipio,Araguaia-Xingu,27430,-6.79053,-50.4791,632.91,449.03,102.47,43.59,0.49,22.36,33.99,60.38,266.02,94.37,72.93,38.54,19.47,1.51,0.564,0.39899999999999997,0.797,0.563,334.0,0.0,1217.6449143273787,0.0,93.0,,,65.0,3.5913978494623655,,Confirmados sem Mortes,5092.0,752.7101335428121,5438.0,745.2004413387281,4312.0,775.742115027829,909.0,633.663366336634,749.5524093708336,19825.00911410864
1500404,Alenquer,15,PA,Norte,Municipio,Baixo Amazonas,56789,-1.94623,-54.7384,696.65,463.58,54.91,76.46,0.58,34.14,52.34,75.77,215.33,79.14,28.88,61.79,59.29,6.27,0.564,0.436,0.779,0.529,1021.0,25.0,1797.883392910599,44.02261001250242,100.0,68.0,32.0,58.0,10.21,0.36764705882352944,Confirmados com Mortes,23725.0,779.7597471022129,25333.0,770.4575060198159,18436.0,822.152310696463,5325.0,628.169014084507,776.1710542578172,44608.99117786895
1500503,Almeirim,15,PA,Norte,Municipio,Baixo Amazonas,34109,-1.52904,-52.5788,454.6,241.67,241.67,64.02,0.65,20.47,38.3,57.77,484.16,78.03,46.54,51.2,33.56,3.78,0.642,0.49700000000000005,0.809,0.659,206.0,18.0,603.9461725644259,52.771995660969246,98.0,93.0,5.0,60.0,2.1020408163265305,0.1935483870967742,Confirmados com Mortes,12128.0,707.602242744063,13195.0,702.720727548314,10580.0,711.8903591682421,2078.0,658.902791145332,704.4364287406861,38684.80459702718
1500602,Altamira,15,PA,Norte,Municipio,Rodovia Transamazônica,114594,-3.20407,-52.21,456.76,381.82,289.3,53.81,0.56,11.25,22.38,45.82,492.05,86.79,65.31,40.91,24.32,2.82,0.665,0.5479999999999999,0.8109999999999999,0.662,3228.0,90.0,2816.9014084507044,78.53814335829102,120.0,91.0,29.0,38.0,26.9,0.989010989010989,Confirmados com Mortes,37154.0,736.152231253701,43509.0,722.829759360132,27420.0,755.908096280087,13349.0,660.8135440856989,727.5578101324195,37967.95643750982
1500701,Anajás,15,PA,Norte,Municipio,Marajó Ocidental,29277,-0.9968110000000001,-49.9354,168.6,168.6,142.46,88.3,0.62,38.53,62.02,82.27,186.88,21.06,11.79,75.33,76.03,7.22,0.484,0.29,0.774,0.506,528.0,11.0,1803.4634696177886,37.57215561703727,88.0,78.0,10.0,70.0,6.0,0.14102564102564102,Confirmados com Mortes,10692.0,690.011223344557,11196.0,687.4598070739551,9490.0,696.22760800843,1483.0,631.9622387053271,688.3174583853202,38241.62311712266
1500800,Ananindeua,15,PA,Norte,Municipio,Metropolitana,530598,-1.36391,-48.3743,16.38,16.38,0.0,43.01,0.52,4.16,13.94,37.46,564.76,92.1,78.93,43.37,9.43,2.11,0.718,0.6579999999999999,0.821,0.684,5801.0,340.0,1093.2947353740497,64.0786433420405,129.0,106.0,23.0,29.0,44.968992248062015,3.207547169811321,Confirmados com Mortes,146493.0,744.8833732669822,172660.0,729.789181049461,97442.0,778.500030787545,58176.0,665.4702970297029,736.5626796918933,32540.64282187268
1500859,Anapu,15,PA,Norte,Municipio,Rodovia Transamazônica,27890,-3.46985,-51.2003,375.28,375.28,312.55,64.07,0.58,26.31,44.8,66.96,266.28,84.69,24.33,50.41,48.31,3.84,0.5479999999999999,0.371,0.7879999999999999,0.563,582.0,15.0,2086.769451416278,53.78271782000717,99.0,65.0,34.0,59.0,5.878787878787879,0.23076923076923078,Confirmados com Mortes,12382.0,744.887740268131,13682.0,734.147054524192,10347.0,759.814438967817,2947.0,644.1805225653209,737.5374764977894,49057.009680889205
1500909,Augusto Corrêa,15,PA,Norte,Municipio,Bacia Atlântico-Caetés,45998,-1.0510899999999999,-46.6147,213.24,213.24,147.33,74.78,0.56,40.76,62.59,81.91,159.05,82.76,25.07,55.27,49.51,8.04,0.52,0.38,0.772,0.48,1049.0,20.0,2280.5339362580985,43.480151310926566,103.0,93.0,10.0,55.0,10.184466019417476,0.21505376344086022,Confirmados com Mortes,18326.0,682.9313543599261,19270.0,680.2075765438509,15876.0,690.173847316704,2625.0,632.685714285714,681.6942082464304,41893.12578807775
1500958,Aurora do Pará,15,PA,Norte,Municipio,Rodovia BR 010,31338,-2.14898,-47.5677,128.26,128.26,102.27,64.17,0.56,33.58,55.64,78.58,184.39,83.68,39.58,53.46,38.79,7.53,0.519,0.358,0.773,0.504,559.0,7.0,1783.7768842938285,22.33709872997638,99.0,66.0,33.0,59.0,5.646464646464646,0.10606060606060606,Confirmados com Mortes,9048.0,750.53050397878,9614.0,743.6654878302479,7245.0,782.6915113871639,1983.0,629.9546142208779,747.945500179276,30678.409598570426
1501006,Aveiro,15,PA,Norte,Municipio,Rio Tapajós,16388,-3.6084099999999997,-55.3199,795.56,524.69,147.2,81.66,0.6,41.63,65.69,84.82,148.71,66.97,24.13,62.65,61.45,10.07,0.541,0.45,0.748,0.47,342.0,4.0,2086.892848425677,24.408103490358798,67.0,44.0,23.0,91.0,5.104477611940299,0.09090909090909091,Confirmados com Mortes,4672.0,661.130136986301,4834.0,660.819197352089,4045.0,665.265760197775,635.0,640.629921259843,661.2857747074578,29497.193068098608
1501105,Bagre,15,PA,Norte,Municipio,Marajó Ocidental,30673,-1.90057,-50.1987,196.28,196.28,148.03,85.18,0.48,28.34,59.68,85.93,159.41,43.17,14.56,81.17,69.04,3.79,0.47100000000000003,0.28,0.777,0.48100000000000004,266.0,9.0,867.2122061748117,29.341766374335734,97.0,83.0,14.0,61.0,2.7422680412371134,0.10843373493975904,Confirmados com Mortes,7508.0,749.8401704848161,8044.0,743.0631526603679,6418.0,764.069803677158,1346.0,646.805349182764,745.47092125579,26225.018746128513
1501204,Baião,15,PA,Norte,Municipio,Baixo Tocantins,47446,-2.7902099999999996,-49.6694,198.01,198.01,147.75,65.28,0.53,28.21,47.95,70.94,226.99,80.15,45.79,63.52,33.51,4.26,0.578,0.467,0.77,0.5379999999999999,291.0,14.0,613.3288369936349,29.507229271171443,94.0,90.0,4.0,64.0,3.095744680851064,0.15555555555555556,Confirmados com Mortes,13509.0,717.610481900955,14572.0,713.8073016744441,11268.0,737.486687965921,2423.0,632.93437886917,716.7336972134443,30712.810352822155
1501253,Bannach,15,PA,Norte,Municipio,Planalto do Araguaia,3286,-7.34779,-50.3959,688.41,392.01,152.35,54.62,0.62,17.47,34.52,59.56,416.31,87.7,67.44,32.46,19.99,4.18,0.594,0.42,0.784,0.635,69.0,2.0,2099.8174071819844,60.86427267194157,93.0,91.0,2.0,65.0,0.7419354838709677,0.02197802197802198,Confirmados com Mortes,1147.0,689.9738448125551,1365.0,685.714285714286,890.0,704.4943820224719,407.0,642.751842751843,686.7944342347075,41539.86609860012
1501303,Barcarena,15,PA,Norte,Municipio,Alça Viária,124680,-1.51187,-48.6195,15.73,15.73,15.73,55.0,0.55,10.49,26.03,49.56,437.43,82.0,62.13,51.4,26.34,2.32,0.662,0.564,0.8009999999999999,0.643,3324.0,103.0,2666.025024061598,82.61148540263072,122.0,99.0,23.0,36.0,27.24590163934426,1.0404040404040404,Confirmados com Mortes,39230.0,737.7262299260769,44854.0,727.4133856512241,29465.0,754.596979467164,12461.0,674.199502447637,731.7181176097134,35975.29675970484
1501402,Belém,15,PA,Norte,Capital,Metropolitana,1492745,-1.4554,-48.4898,0.0,0.0,0.0,42.06,0.61,3.54,13.04,33.26,853.82,96.09,86.84,43.19,4.73,2.44,0.746,0.6729999999999999,0.8220000000000001,0.7509999999999999,25395.0,2030.0,1701.2282740856608,135.9910768416575,136.0,117.0,19.0,22.0,186.72794117647058,17.35042735042735,Confirmados com Mortes,419701.0,735.103323556532,493495.0,720.810950465557,299800.0,759.5163442294859,158653.0,657.105759109503,726.275453851532,33059.56476156342
1501451,Belterra,15,PA,Norte,Municipio,Baixo Amazonas,17732,-2.6360900000000003,-54.9374,728.4,522.56,34.36,70.3,0.58,28.5,47.03,72.35,241.57,68.7,37.92,50.75,50.79,6.24,0.588,0.478,0.775,0.5479999999999999,130.0,7.0,733.1378299120234,39.47665237987819,91.0,76.0,15.0,67.0,1.4285714285714286,0.09210526315789473,Confirmados com Mortes,6927.0,704.374187960156,7496.0,700.8537886873,5399.0,719.3554361918871,1569.0,652.390057361377,703.1087840680659,42273.85517708098
1501501,Benevides,15,PA,Norte,Municipio,Metropolitana,62737,-1.3618299999999999,-48.2434,29.3,29.3,14.55,51.61,0.48,6.95,21.31,51.03,385.83,94.01,76.75,50.46,16.13,3.15,0.665,0.5920000000000001,0.7979999999999999,0.623,1317.0,48.0,2099.239683121603,76.50987455568483,120.0,99.0,21.0,38.0,10.975,0.48484848484848486,Confirmados com Mortes,24209.0,766.475277789252,26923.0,753.459867028191,19000.0,790.8,6502.0,658.966471854814,758.8120155544534,42914.069847139646
1501576,Bom Jesus do Tocantins,15,PA,Norte,Municipio,Rodovia BR 222,16981,-5.0424,-48.6047,399.06,399.06,69.53,56.41,0.52,12.98,31.11,58.75,337.28,88.44,50.48,42.46,30.1,2.98,0.589,0.43700000000000006,0.777,0.601,200.0,1.0,1177.7869383428538,5.888934691714269,97.0,2.0,95.0,61.0,2.0618556701030926,0.5,Confirmados com Mortes,5056.0,730.6566455696201,5504.0,723.5101744186051,3922.0,763.539010708822,1192.0,629.194630872483,728.6589256092894,32412.696543195336
1501600,Bonito,15,PA,Norte,Municipio,Bacia Atlântico-Caetés,16286,-1.36745,-47.3066,131.89,131.89,68.26,58.58,0.5,22.74,47.84,74.47,218.05,88.71,32.4,42.79,42.65,4.11,0.546,0.39799999999999996,0.77,0.531,219.0,7.0,1344.7132506447253,42.98170207540218,96.0,71.0,25.0,62.0,2.28125,0.09859154929577464,Confirmados com Mortes,5033.0,708.3647923703559,5425.0,704.0737327188941,3922.0,730.6476287608359,1103.0,636.446056210335,707.3822902538268,33310.8191084367
1501709,Bragança,15,PA,Norte,Municipio,Bacia Atlântico-Caetés,127686,-1.06126,-46.7826,194.78,194.78,128.8,60.62,0.58,20.59,41.59,66.91,311.97,73.73,55.22,48.56,33.48,4.3,0.6,0.486,0.755,0.589,2060.0,90.0,1613.3327067963598,70.48540952022933,109.0,99.0,10.0,49.0,18.89908256880734,0.9090909090909091,Confirmados com Mortes,45897.0,704.189816327865,50467.0,697.8342283076072,35878.0,721.6121299960979,11003.0,638.825774788694,701.2935879088277,39524.301802860144
1501725,Brasil Novo,15,PA,Norte,Municipio,Rodovia Transamazônica,15086,-3.2979199999999995,-52.534,493.8,404.77,258.79,55.42,0.67,26.63,41.29,61.82,408.55,81.02,52.48,35.9,27.73,4.41,0.613,0.451,0.809,0.632,508.0,8.0,3367.360466657828,53.02929868752486,83.0,68.0,15.0,75.0,6.120481927710843,0.11764705882352941,Confirmados com Mortes,7592.0,696.5753424657539,8453.0,691.068259789424,5847.0,711.33914828117,1966.0,646.693794506612,694.131947355185,56032.08272570596
1501758,Brejo Grande do Araguaia,15,PA,Norte,Municipio,Serra das Andorinhas,7380,-5.69822,-48.4103,471.86,471.86,87.4,60.06,0.57,20.34,40.26,64.88,310.08,93.36,42.1,36.62,41.91,5.27,0.591,0.473,0.743,0.588,88.0,1.0,1192.4119241192411,13.550135501355014,75.0,11.0,64.0,83.0,1.1733333333333333,0.09090909090909091,Confirmados com Mortes,2664.0,688.0630630630629,2900.0,685.862068965517,2057.0,702.6737967914439,594.0,648.4848484848478,688.0827754108337,39295.392953929535
1501782,Breu Branco,15,PA,Norte,Municipio,Lago Tucuruí,66046,-3.7719099999999997,-49.5735,284.32,284.32,185.45,66.22,0.53,20.91,43.11,71.34,252.31,88.19,42.8,53.72,45.37,2.79,0.568,0.42200000000000004,0.7809999999999999,0.555,259.0,19.0,392.1509251128001,28.76782848317839,91.0,76.0,15.0,67.0,2.8461538461538463,0.25,Confirmados com Mortes,14827.0,785.458960005395,16461.0,771.605613267724,12259.0,816.2819153275141,3457.0,638.009835117154,777.8018892009189,24923.538140084183
1501808,Breves,15,PA,Norte,Municipio,Marajó Ocidental,102701,-1.6803599999999999,-50.4791,222.53,201.71,177.93,81.75,0.58,32.09,56.22,79.45,209.14,45.63,22.97,74.51,60.55,6.27,0.503,0.312,0.778,0.524,1611.0,79.0,1568.6312694131507,76.92232792280504,103.0,102.0,1.0,55.0,15.640776699029127,0.7745098039215687,Confirmados com Mortes,36592.0,741.145605596852,39358.0,733.6958178769249,30688.0,756.4324817518251,7314.0,641.673502871206,736.3047598989051,38322.89851121216
1501907,Bujaru,15,PA,Norte,Municipio,Rodovia PA-140/Rio Capim,29132,-1.51762,-48.0381,50.68,50.68,27.9,71.53,0.52,31.25,54.0,81.17,174.18,73.37,23.83,63.07,54.04,6.65,0.552,0.43700000000000006,0.779,0.495,251.0,21.0,861.5954963613896,72.08567897844293,112.0,93.0,19.0,46.0,2.2410714285714284,0.22580645161290322,Confirmados com Mortes,11251.0,690.018665007555,11642.0,687.9230372788179,9740.0,696.899383983573,1435.0,637.212543554007,689.0454385346953,39962.9273650968
1501956,Cachoeira do Piriá,15,PA,Norte,Municipio,Bacia Atlântico-Caetés,33900,-1.75974,-46.5459,218.7,218.7,160.79,74.59,0.58,43.93,67.43,89.24,130.4,71.32,6.68,58.42,75.78,3.6,0.473,0.303,0.779,0.449,428.0,2.0,1262.5368731563422,5.899705014749263,91.0,31.0,60.0,67.0,4.7032967032967035,0.06451612903225806,Confirmados com Mortes,8329.0,677.36823148037,8662.0,675.502193488802,7577.0,680.2956315164311,942.0,639.490445859873,676.2054096432773,25551.622418879055
1502004,Cachoeira do Arari,15,PA,Norte,Municipio,Marajó Oriental,23767,-1.01226,-48.9503,71.05,71.05,71.05,63.44,0.6,36.27,54.4,73.24,209.79,76.66,31.57,60.19,46.84,7.92,0.546,0.39799999999999996,0.778,0.525,247.0,11.0,1039.2561114149871,46.282660832246385,108.0,95.0,13.0,50.0,2.287037037037037,0.11578947368421053,Confirmados com Mortes,6664.0,714.255702280912,6975.0,709.9354838709679,5745.0,720.104438642298,1051.0,644.52901998097,710.839246390996,29347.41448226533
1502103,Cametá,15,PA,Norte,Municipio,Baixo Tocantins,137890,-2.24295,-49.4979,142.2,142.2,89.95,69.15,0.58,29.03,50.71,75.25,226.99,62.32,43.07,71.59,42.24,7.07,0.5770000000000001,0.474,0.754,0.5379999999999999,4366.0,86.0,3166.291971861629,62.36855464500688,117.0,117.0,0.0,41.0,37.31623931623932,0.7350427350427351,Confirmados com Mortes,50033.0,710.4590969959829,54389.0,704.27108422659,39627.0,725.5961844197141,11716.0,640.252645954251,706.8686803839119,39443.75951845674
1502152,Canaã dos Carajás,15,PA,Norte,Municipio,Serra dos Carajás,37085,-6.49659,-49.8776,581.3,448.64,47.77,53.8,0.55,8.24,20.83,45.63,517.33,94.89,62.11,36.0,21.73,2.29,0.6729999999999999,0.569,0.8009999999999999,0.67,2625.0,35.0,7078.333558042335,94.3777807738978,109.0,109.0,0.0,49.0,24.08256880733945,0.3211009174311927,Confirmados com Mortes,14467.0,742.5036289486421,17986.0,727.3323696208159,10214.0,756.549833561778,6324.0,687.0967741935481,732.7100896082954,48499.39328569503
1502202,Capanema,15,PA,Norte,Municipio,Bacia Atlântico-Caetés,69027,-1.20529,-47.1778,148.48,148.48,82.79,52.88,0.53,14.23,30.91,56.52,356.27,90.45,56.34,32.96,21.88,5.14,0.655,0.58,0.794,0.61,1056.0,60.0,1529.8361510713198,86.92250858359773,110.0,96.0,14.0,48.0,9.6,0.625,Confirmados com Mortes,23785.0,708.2951439983179,27665.0,699.0276522682091,18330.0,722.7168576104749,7683.0,656.7746973838339,703.2880213779482,40078.51999942052
1502301,Capitão Poço,15,PA,Norte,Municipio,Rodovia BR 010,54303,-1.74785,-47.0629,161.9,161.9,107.28,61.74,0.62,25.24,50.15,73.18,283.1,86.31,47.99,44.76,35.45,4.7,0.5479999999999999,0.385,0.747,0.573,690.0,33.0,1270.6480304955528,60.770123197613394,108.0,83.0,25.0,50.0,6.388888888888889,0.39759036144578314,Confirmados com Mortes,21655.0,705.897021473101,23383.0,699.9700637215071,16501.0,725.9560026665049,5138.0,637.7189567925261,703.5289530122831,43060.23608272103
1502400,Castanhal,15,PA,Norte,Municipio,Rio Guamá,200793,-1.29797,-47.9167,66.07,66.07,0.0,49.38,0.54,7.15,22.93,48.59,467.32,92.91,67.2,41.74,19.78,3.39,0.6729999999999999,0.5820000000000001,0.8,0.654,1796.0,179.0,894.4534919045982,89.14653399271886,128.0,97.0,31.0,30.0,14.03125,1.8453608247422681,Confirmados com Mortes,59944.0,727.7892699853201,70933.0,715.977048764327,41604.0,746.524372656475,23116.0,671.8203841495072,720.8760870565501,35326.43070226551
1502509,Chaves,15,PA,Norte,Municipio,Marajó Oriental,23717,-0.164154,-49.986999999999995,219.83,122.38,122.38,78.63,0.67,43.41,63.04,78.69,198.83,27.88,8.91,72.7,85.36,7.04,0.45299999999999996,0.23399999999999999,0.769,0.516,162.0,1.0,683.054349200995,4.216384871611081,90.0,78.0,12.0,68.0,1.8,0.01282051282051282,Confirmados com Mortes,6450.0,686.046511627907,6699.0,684.191670398567,5789.0,690.689238210399,761.0,640.210249671485,685.0093913396619,28245.56225492263
1502608,Colares,15,PA,Norte,Municipio,Rodovia PA-140/Rio Guajará-Mirim,12085,-0.936423,-48.2803,62.23,62.23,48.67,65.66,0.56,26.14,51.27,74.47,231.98,88.59,53.01,52.4,37.01,5.42,0.602,0.528,0.763,0.541,78.0,9.0,645.428216797683,74.47248655357883,103.0,92.0,11.0,55.0,0.7572815533980582,0.09782608695652174,Confirmados com Mortes,4798.0,690.662776156732,5113.0,687.4242127909249,3982.0,703.81717729784,906.0,630.46357615894,689.3979322927223,42308.64708316095
1502707,Conceição do Araguaia,15,PA,Norte,Municipio,Araguaia,47864,-8.26136,-49.2689,761.69,241.76,166.99,57.88,0.54,11.78,27.91,50.74,405.29,89.89,71.41,30.76,15.58,3.94,0.64,0.54,0.77,0.631,542.0,7.0,1132.3750626775864,14.62477018218285,110.0,64.0,46.0,48.0,4.927272727272728,0.109375,Confirmados com Mortes,14472.0,686.65008291874,16837.0,682.746332482034,9790.0,703.758937691522,5393.0,657.185240126089,685.4211477243398,35176.75079391609
1502756,Concórdia do Pará,15,PA,Norte,Municipio,Rodovia PA-140/Rio Capim,33318,-1.9923799999999998,-47.9422,85.26,85.26,77.27,65.93,0.5,15.39,38.98,69.47,260.68,82.49,28.9,55.67,58.67,4.39,0.5660000000000001,0.43799999999999994,0.741,0.56,1001.0,12.0,3004.382015727235,36.016567621105715,100.0,73.0,27.0,58.0,10.01,0.1643835616438356,Confirmados com Mortes,11667.0,719.773720750836,12395.0,715.74021782977,9697.0,732.721460245437,2210.0,650.7692307692311,717.6346298201231,37202.11297196711
1502764,Cumaru do Norte,15,PA,Norte,Municipio,Planalto do Araguaia,13473,-7.810969999999999,-50.7698,750.48,378.44,216.12,50.48,0.64,24.58,36.37,56.77,417.06,80.98,43.16,46.25,21.31,3.93,0.55,0.33,0.795,0.635,242.0,4.0,1796.1849625176278,29.68900764491947,73.0,57.0,16.0,85.0,3.315068493150685,0.07017543859649122,Confirmados com Mortes,3147.0,753.4795042898002,3462.0,744.1941074523401,2524.0,777.812995245642,764.0,643.193717277487,747.9236132161263,25695.8361166778
1502772,Curionópolis,15,PA,Norte,Municipio,Serra dos Carajás,17929,-6.09965,-49.6068,531.07,480.53,33.02,60.99,0.54,18.69,34.88,62.14,319.35,69.93,55.97,40.55,40.46,5.12,0.636,0.536,0.809,0.5920000000000001,975.0,13.0,5438.117017123097,72.50822689497463,101.0,101.0,0.0,57.0,9.653465346534654,0.12871287128712872,Confirmados com Mortes,7278.0,778.8128606760101,8073.0,766.109253065775,5641.0,812.409147314306,1789.0,655.338177752935,772.9335850050483,45027.60890177924
